Latitude,Longitude,Time,Date,Number of Sats,GPS Speed (Kn),GPS True Heading,GPS Magnetic Variation,HDOP,C Magnetic Heading,C True Heading,Pitch Angle,Roll Angle,C Inside Temp (c),DFS Depth (m),DTB Height (m),Total Water Column (m),Batt Percent,Power Watts,Watt-Hours,Batt Volts,Batt Ampers,Batt State,Time to Empty,Current Step,Dist To Next (m),Next Speed (kn),Vehicle Speed (kn),Motor Speed CMD,Next Heading,Next Long,Next Lat,Next Depth (m),Depth Goal (m),Vehicle State,Error State,Fin Pitch R,Fin Pitch L,Pitch Goal,Fin Yaw T,Fin Yaw B,Yaw Goal,Fin Roll
33.86626833,-112.2942933,53:36.1,8/16/2011,8,0.38,301.32,11.0838024,0,286.1,297.1838024,4.8,-3.1,38.5,0.01,2.25,2.26,81,20,372,14.2,-1.4,D,1077,0,3.177,1,0,128,157.1969,-112.29428,33.866242,0,0,1,N,127,127,5,5,5,157.1969,0
33.86627082,-112.294297,53:37.1,8/16/2011,8,0.36,300.92,11.0838024,0,284.8,295.8838024,4.9,-3.2,38.6,0.02,2.34,2.36,81,20,372,14.2,-1.4,D,1077,0,3.569,1,1,128,153.914,-112.29428,33.866242,0,0,1,N,128,128,5,5,5,156.0193,0
33.86627141,-112.2943002,53:38.1,8/16/2011,8,0.39,292.25,11.0838024,0,285,296.0838024,5.5,0.5,38.6,0.03,2.4,2.43,81,20,372,14.2,-1.4,D,1085.2,1,66.075,1,1,165,21.57529,-112.294037,33.866824,0,0,1,N,131,131,5,250,250,21.57529,0
33.86627327,-112.294304,53:39.1,8/16/2011,8,0.39,296.56,11.0838024,0,285.1,296.1838024,4.8,-0.5,38.6,0.02,2.43,2.45,81,20,372,14.2,-1.4,D,1085.2,1,66.015,1,1,165,21.9274,-112.294037,33.866824,0,0,1,N,127,127,5,250,250,21.9274,0
33.86627339,-112.2943057,53:40.2,8/16/2011,8,0.51,284.96,11.0838024,0,286.8,297.8838024,4.8,0.6,38.6,0.02,2.43,2.45,81,24,372,14.2,-1.7,D,896.8,1,66.061,1,1,165,22.05953,-112.294037,33.866824,0,0,1,N,127,127,5,250,250,22.05953,0
33.8662738,-112.294306,53:41.1,8/16/2011,8,0.65,283.13,11.0838024,0,289.8,300.8838024,4.6,0.4,38.7,0.01,2.49,2.5,81,24,372,14.2,-1.7,D,896.8,1,66.027,1,1,165,22.09246,-112.294037,33.866824,0,0,1,N,126,126,5,250,250,22.09246,0
33.86627384,-112.2943093,53:42.2,8/16/2011,8,0.76,283.94,11.0838024,0,293.3,304.3838024,4.5,0.2,38.7,0.01,2.55,2.56,81,25,371.9,14.2,-1.8,D,860.4,1,66.139,1,1,165,22.33834,-112.294037,33.866824,0,0,1,N,126,126,5,250,250,22.33834,0
33.86627719,-112.2943169,53:43.2,8/16/2011,8,0.8,286.72,11.0838024,0,297.3,308.3838024,4.5,-0.1,38.6,0.01,2.55,2.56,81,25,371.9,14.2,-1.8,D,860.4,1,66.068,1,1,165,23.02838,-112.294037,33.866824,0,0,1,N,126,126,5,250,250,23.02838,0
33.86627909,-112.29432,53:44.2,8/16/2011,8,0.78,294.68,11.0838024,0,301.9,312.9838024,4.4,0,38.6,0,2.61,2.62,81,25,371.9,14.2,-1.8,D,860.4,1,65.986,1,1,165,23.32922,-112.294037,33.866824,0,0,1,N,126,126,5,250,250,23.32922,0
33.86627901,-112.2943224,53:45.2,8/16/2011,8,0.8,296.7,11.0838024,0,306.1,317.1838024,4.3,0.1,38.7,0,2.77,2.77,81,25,371.9,14.2,-1.8,D,851.4,1,66.082,1,1,165,23.50237,-112.294037,33.866824,0,0,1,N,125,125,5,250,250,23.50237,0
33.86628072,-112.2943257,53:46.2,8/16/2011,8,0.86,306.57,11.0838024,0,310.7,321.7838024,4.3,0.2,38.7,0,2.8,2.8,81,25,371.9,14.2,-1.8,D,851.4,1,66.03,1,1,165,23.80879,-112.294037,33.866824,0,0,1,N,125,125,5,250,250,23.80879,0
33.86628637,-112.294331,53:47.2,8/16/2011,8,0.85,311.55,11.0838024,0,315,326.0838024,4.4,-0.4,38.7,0,2.89,2.89,81,25,371.9,14.2,-1.8,D,852.3,1,65.656,1,1,165,24.41918,-112.294037,33.866824,0,0,1,N,126,126,5,250,250,24.41918,0
33.8662866,-112.2943328,53:48.2,8/16/2011,8,0.88,315.95,11.0838024,0,319.5,330.5838024,4.3,0,38.7,0,3.04,3.04,81,25,371.9,14.2,-1.8,D,852.3,1,65.702,1,1,165,24.56184,-112.294037,33.866824,0,0,1,N,125,125,5,250,250,24.56184,0
33.86628917,-112.2943355,53:49.2,8/16/2011,8,0.89,320.32,11.0838024,0,323.8,334.8838024,4.3,-0.2,38.7,0,3.13,3.13,81,25,371.9,14.2,-1.8,D,849.5,1,65.546,1,1,165,24.86268,-112.294037,33.866824,0,0,1,N,125,125,5,250,250,24.86268,0
33.8662934,-112.2943391,53:50.2,8/16/2011,8,0.89,320.22,11.0838024,0,328.8,339.8838024,4.3,-0.1,38.7,0,3.16,3.16,81,25,371.9,14.2,-1.8,D,849.5,1,65.263,1,1,165,25.30518,-112.294037,33.866824,0,0,1,N,125,125,5,250,250,25.30518,0
33.86629843,-112.2943423,53:51.2,8/16/2011,8,0.92,325.6,11.0838024,0,332.4,343.4838024,4.3,-0.2,38.7,0,3.25,3.25,81,25,371.9,14.2,-1.8,D,848.5,1,64.885,1,1,165,25.75198,-112.294037,33.866824,0,0,1,N,125,125,5,250,250,25.75198,0
33.86630181,-112.2943455,53:52.2,8/16/2011,8,0.84,325.53,11.0838024,0,337.2,348.2838024,4.3,-0.2,38.7,0,3.34,3.34,81,25,371.9,14.2,-1.8,D,848.5,1,64.675,1,1,165,26.12901,-112.294037,33.866824,0,0,1,N,125,125,5,250,250,26.12901,0
33.86630517,-112.294347,53:53.2,8/16/2011,8,0.83,329.56,11.0838024,0,342.4,353.4838024,4.3,-0.3,38.7,0,3.41,3.41,81,25,371.9,14.2,-1.8,D,848,1,64.401,1,1,165,26.38536,-112.294037,33.866824,0,0,1,N,125,125,5,250,250,26.38536,0
33.86631036,-112.2943503,53:54.2,8/16/2011,8,0.83,334.5,11.0838024,0,347.6,358.6838024,4.3,0,38.6,0,3.47,3.47,81,25,371.9,14.2,-1.8,D,848,1,64.022,1,1,165,26.86042,-112.294037,33.866824,0,0,1,N,125,125,5,250,250,26.86042,0
33.8663137,-112.2943516,53:55.2,8/16/2011,8,0.82,339.63,11.0838024,0,351.6,2.683802404,4.3,-0.6,38.7,0,3.53,3.53,81,26,371.9,14.2,-1.8,D,844.8,1,63.747,1,1,165,27.11174,-112.294037,33.866824,0,0,1,N,125,125,5,250,250,27.11174,0
33.86631517,-112.2943531,53:56.2,8/16/2011,8,0.84,348.96,11.0838024,0,356.3,7.383802404,4.3,-0.3,38.7,0,3.62,3.62,81,26,371.9,14.2,-1.8,D,844.8,1,63.663,1,1,165,27.2846,-112.294037,33.866824,0,0,1,N,125,125,5,246,246,27.2846,0
33.86632198,-112.2943526,53:57.2,8/16/2011,8,0.83,353.83,11.0838024,0,1,12.0838024,4.3,-0.5,38.7,0,3.65,3.65,81,26,371.8,14.2,-1.8,D,847,1,62.969,1,1,165,27.56289,-112.294037,33.866824,0,0,1,N,125,125,5,232,232,27.56289,0
33.86632345,-112.2943528,53:58.2,8/16/2011,8,0.94,358.55,11.0838024,0,5.5,16.5838024,4.3,-0.4,38.7,0,3.68,3.68,81,26,371.8,14.2,-1.8,D,847,1,62.832,1,1,165,27.64478,-112.294037,33.866824,0,0,1,N,125,125,5,215,215,27.64478,0
33.86632843,-112.2943526,53:59.2,8/16/2011,8,0.95,3.61,11.0838024,0,7.8,18.8838024,4.2,-0.8,38.7,0,3.71,3.71,81,26,371.8,14.2,-1.8,D,846.5,1,62.337,1,1,165,27.87244,-112.294037,33.866824,0,0,1,N,125,125,5,208,208,27.87244,0
33.86633518,-112.2943517,54:00.2,8/16/2011,8,0.96,7.12,11.0838024,0,11.5,22.5838024,4.1,-0.9,38.7,0,3.71,3.71,81,26,371.8,14.2,-1.8,D,846.5,1,61.636,1,1,165,28.13097,-112.294037,33.866824,0,0,1,N,124,124,5,194,194,28.13097,0
33.86633834,-112.2943507,54:01.2,8/16/2011,8,0.98,11.08,11.0838024,0,15.6,26.6838024,4.1,-1.2,38.7,0,3.71,3.71,81,26,371.8,14.2,-1.8,D,846.5,1,61.28,1,1,165,28.20714,-112.294037,33.866824,0,0,1,N,124,124,5,179,179,28.20714,0
33.86634325,-112.2943495,54:02.2,8/16/2011,8,0.96,10.64,11.0838024,0,19.1,30.1838024,3.9,-1.3,38.8,0,3.71,3.71,81,26,371.8,14.2,-1.8,D,845.5,1,60.748,1,1,165,28.36033,-112.294037,33.866824,0,0,1,N,124,124,5,168,168,28.36033,0
33.86634823,-112.2943476,54:03.2,8/16/2011,8,0.96,14.67,11.0838024,0,21.9,32.9838024,3.8,-1.4,38.7,0,3.74,3.74,81,26,371.8,14.2,-1.8,D,845.5,1,60.176,1,1,165,28.46062,-112.294037,33.866824,0,0,1,N,123,123,5,193,193,28.46062,0
33.86635223,-112.2943452,54:04.2,8/16/2011,8,0.83,22,11.0838024,0,23.9,34.9838024,3.8,-0.5,38.7,0,3.74,3.74,81,26,371.8,14.2,-1.8,D,844.6,1,59.681,1,1,165,28.4795,-112.294037,33.866824,0,0,1,N,123,123,5,184,184,28.4795,0
33.86635481,-112.2943453,54:05.2,8/16/2011,8,0.84,25.6,11.0838024,0,26.5,37.5838024,3.8,-1.6,38.7,0,3.77,3.77,81,26,371.8,14.2,-1.8,D,844.6,1,59.433,1,1,165,28.6188,-112.294037,33.866824,0,0,1,N,123,123,5,172,172,28.6188,0
33.86635881,-112.2943429,54:06.2,8/16/2011,8,0.84,28.25,11.0838024,0,29.5,40.5838024,3.8,-1.5,38.7,0,3.8,3.8,81,26,371.8,14.2,-1.8,D,841.3,1,58.935,1,1,165,28.63281,-112.294037,33.866824,0,0,1,N,123,123,5,157,157,28.63281,0
33.86636344,-112.294338,54:07.3,8/16/2011,8,0.84,31.14,11.0838024,0,32.2,43.2838024,3.8,-1.6,38.7,0,4.02,4.02,81,26,371.8,14.2,-1.8,D,841.3,1,58.265,1,1,165,28.48376,-112.294037,33.866824,0,0,1,N,123,123,5,145,145,28.48376,0
33.86636466,-112.2943384,54:08.3,8/16/2011,8,0.9,38.34,11.0838024,0,33.5,44.5838024,3.8,-1.7,38.8,0,4.08,4.08,81,26,371.7,14.2,-1.8,D,841.3,1,58.167,1,1,165,28.58677,-112.294037,33.866824,0,0,1,N,123,123,5,144,144,28.58677,0
33.86636801,-112.2943351,54:09.3,8/16/2011,8,0.91,41.98,11.0838024,0,34.2,45.2838024,3.7,-1.7,38.7,0,3.99,3.99,81,26,371.7,14.2,-1.8,D,841.3,1,57.691,1,1,165,28.491,-112.294037,33.866824,0,0,1,N,123,123,5,152,152,28.491,0
33.86637129,-112.2943301,54:10.3,8/16/2011,8,1.01,39.91,11.0838024,0,34.9,45.9838024,3.7,-0.8,38.7,0,3.83,3.83,81,26,371.7,14.2,-1.8,D,839.9,1,57.151,1,1,165,28.25985,-112.294037,33.866824,0,0,1,N,123,123,5,155,155,28.25985,0
33.86637462,-112.2943267,54:11.3,8/16/2011,8,1.03,40.35,11.0838024,0,35.8,46.8838024,3.7,-1,38.7,0,3.83,3.83,81,26,371.7,14.2,-1.8,D,839.9,1,56.679,1,1,165,28.1615,-112.294037,33.866824,0,0,1,N,123,123,5,162,162,28.1615,0
33.86638167,-112.2943217,54:12.3,8/16/2011,8,1.03,42.28,11.0838024,0,37.2,48.2838024,3.7,-0.8,38.7,0,3.8,3.8,81,26,371.7,14.2,-1.8,D,839.9,1,56.046,1,1,165,28.14785,-112.294037,33.866824,0,0,1,N,123,123,5,157,157,28.14785,0
33.86638471,-112.2943175,54:13.3,8/16/2011,8,1.03,42.28,11.0838024,0,38.6,49.6838024,3.7,-1.6,38.7,0,3.71,3.71,81,26,371.7,14.2,-1.8,D,842.1,1,55.287,1,1,165,27.92922,-112.294037,33.866824,0,0,1,N,123,123,5,153,153,27.92922,0
33.86638617,-112.2943149,54:14.3,8/16/2011,8,0.96,40.42,11.0838024,0,40.1,51.1838024,3.7,-0.8,38.7,0,3.74,3.74,81,26,371.7,14.2,-1.8,D,842.1,1,55.035,1,1,165,27.79415,-112.294037,33.866824,0,0,1,N,123,123,5,146,146,27.79415,0
33.86638949,-112.2943116,54:15.3,8/16/2011,8,0.99,40.68,11.0838024,0,41,52.0838024,3.7,-1.4,38.7,0,3.71,3.71,81,26,371.7,14.2,-1.8,D,842.1,1,54.564,1,1,165,27.68711,-112.294037,33.866824,0,0,1,N,123,123,5,149,149,27.68711,0
33.866395,-112.2943067,54:16.3,8/16/2011,8,0.88,49.9,11.0838024,0,42.3,53.3838024,3.6,-1.2,38.7,0,3.62,3.62,81,26,371.7,14.2,-1.8,D,842.1,1,54.09,1,1,165,27.57467,-112.294037,33.866824,0,0,1,N,122,122,5,157,157,27.57467,0
33.86639833,-112.2943033,54:17.3,8/16/2011,8,0.88,49.68,11.0838024,0,43.3,54.3838024,3.6,-1,38.7,0,3.59,3.59,81,26,371.7,14.2,-1.8,D,842.1,1,53.348,1,1,165,27.31996,-112.294037,33.866824,0,0,1,N,122,122,5,155,155,27.31996,0
33.8664,-112.2942983,54:18.3,8/16/2011,8,0.89,52.58,11.0838024,0,44.8,55.8838024,3.7,-0.9,38.7,0,3.56,3.56,81,26,371.7,14.2,-1.8,D,842.1,1,52.884,1,1,165,27.19652,-112.294037,33.866824,0,0,1,N,123,123,5,143,143,27.19652,0
33.86640333,-112.294295,54:19.3,8/16/2011,8,0.94,55.6,11.0838024,0,45.6,56.6838024,3.7,-1.6,38.7,0,3.56,3.56,81,26,371.7,14.2,-1.8,D,843,1,52.51,1,1,165,26.82584,-112.294037,33.866824,0,0,1,N,123,123,5,129,129,26.82584,0
33.86640594,-112.2942901,54:20.3,8/16/2011,8,0.94,55.6,11.0838024,0,46.4,57.4838024,3.6,-1.9,38.7,0,3.47,3.47,81,26,371.7,14.2,-1.8,D,843,1,52.031,1,1,165,26.69222,-112.294037,33.866824,0,0,1,N,122,122,5,117,117,26.69222,0
33.86640833,-112.294285,54:21.3,8/16/2011,8,1.04,53.73,11.0838024,0,46.3,57.3838024,3.6,-1.9,38.7,0,3.5,3.5,81,26,371.6,14.2,-1.8,D,842,1,51.854,1,1,165,26.4548,-112.294037,33.866824,0,0,1,N,122,122,5,115,115,26.4548,0
33.86641167,-112.2942817,54:22.3,8/16/2011,8,1.06,52.8,11.0838024,0,45.9,56.9838024,3.7,-1.2,38.7,0,3.41,3.41,81,26,371.6,14.2,-1.8,D,842,1,51.141,1,1,165,26.05932,-112.294037,33.866824,0,0,1,N,123,123,5,115,115,26.05932,0
33.86641423,-112.294277,54:23.3,8/16/2011,8,1.06,52.8,11.0838024,0,45,56.0838024,3.6,-1.1,38.7,0,3.41,3.41,81,26,371.6,14.2,-1.8,D,841,1,50.669,1,1,165,25.93798,-112.294037,33.866824,0,0,1,N,122,122,5,125,125,25.93798,0
33.86641607,-112.2942748,54:24.3,8/16/2011,8,1.05,54.61,11.0838024,0,43.5,54.5838024,3.5,-1.6,38.6,0,3.38,3.38,81,26,371.6,14.2,-1.8,D,841,1,50.397,1,1,165,25.83302,-112.294037,33.866824,0,0,1,N,122,122,5,135,135,25.83302,0
33.86641774,-112.2942699,54:25.3,8/16/2011,8,1.06,53.26,11.0838024,0,43.3,54.3838024,3.8,-0.7,38.6,0,3.35,3.35,81,26,371.6,14.2,-1.8,D,836,1,50.03,1,1,165,25.45084,-112.294037,33.866824,0,0,1,N,123,123,5,134,134,25.45084,0
33.86642166,-112.2942639,54:26.3,8/16/2011,8,0.97,50.92,11.0838024,0,43,54.0838024,3.5,-1.4,38.6,0,3.35,3.35,81,26,371.6,14.2,-1.8,D,836,1,49.401,1,1,165,25.0947,-112.294037,33.866824,0,0,1,N,122,122,5,134,134,25.15235,0
33.86642495,-112.2942606,54:27.3,8/16/2011,8,1,48.4,11.0838024,0,43.4,54.4838024,3.5,-1.1,38.6,0,3.38,3.38,81,26,371.6,14.2,-1.8,D,836,1,48.941,1,1,165,24.95297,-112.294037,33.866824,0,0,1,N,122,122,5,130,130,24.95297,0
33.86642828,-112.2942556,54:28.3,8/16/2011,8,0.91,53.25,11.0838024,0,43.4,54.4838024,3.7,-1.5,38.7,0,3.38,3.38,81,26,371.6,14.2,-1.8,D,836,1,48.411,1,1,165,24.6423,-112.294037,33.866824,0,0,1,N,123,123,5,128,128,24.70269,0
33.86642995,-112.2942523,54:29.3,8/16/2011,8,0.93,52.85,11.0838024,0,43.3,54.3838024,3.6,-1.5,38.7,0,3.41,3.41,81,26,371.6,14.2,-1.8,D,836,1,48.114,1,1,165,24.40174,-112.294037,33.866824,0,0,1,N,122,122,5,127,127,24.40174,0
33.86643329,-112.2942473,54:30.3,8/16/2011,8,0.9,54.89,11.0838024,0,43.3,54.3838024,3.6,-1.4,38.6,0,3.47,3.47,81,26,371.6,14.2,-1.8,D,836,1,47.586,1,1,165,24.08068,-112.294037,33.866824,0,0,1,N,122,122,5,126,126,24.08068,0
33.86643495,-112.294244,54:31.3,8/16/2011,8,0.92,54.03,11.0838024,0,43.3,54.3838024,3.6,-1.1,38.7,0,3.5,3.5,81,26,371.6,14.2,-1.8,D,836,1,47.292,1,1,165,23.83112,-112.294037,33.866824,0,0,1,N,122,122,5,123,123,23.83112,0
33.86643829,-112.294239,54:32.3,8/16/2011,8,1,56.31,11.0838024,0,43.2,54.2838024,3.6,-1.8,38.7,0,3.53,3.53,81,26,371.5,14.2,-1.8,D,837.2,1,46.768,1,1,165,23.49775,-112.294037,33.866824,0,0,1,N,122,122,5,121,121,23.49775,0
33.86644164,-112.2942356,54:33.3,8/16/2011,8,0.99,56.13,11.0838024,0,42.4,53.4838024,3.6,-1.5,38.7,0,3.59,3.59,81,26,371.5,14.2,-1.8,D,837.2,1,46.304,1,1,165,23.33391,-112.294037,33.866824,0,0,1,N,122,122,5,124,124,23.39791,0
33.866445,-112.2942283,54:34.3,8/16/2011,8,1.09,50.96,11.0838024,0,41.5,52.5838024,3.6,-1.4,38.7,0,3.68,3.68,81,26,371.5,14.2,-1.8,D,837.2,1,45.941,1,1,165,22.8955,-112.294037,33.866824,0,0,1,N,122,122,5,126,126,22.8955,0
33.86644785,-112.2942239,54:35.3,8/16/2011,8,1.09,50.96,11.0838024,0,40.8,51.8838024,3.7,-1,38.7,0,3.71,3.71,81,26,371.5,14.2,-1.8,D,837.2,1,45.248,1,1,165,22.42445,-112.294037,33.866824,0,0,1,N,122,122,5,125,125,22.42445,0
33.86645009,-112.2942207,54:36.3,8/16/2011,8,1.07,49.95,11.0838024,0,40.2,51.2838024,3.7,-1.2,38.7,0,3.77,3.77,81,26,371.5,14.2,-1.8,D,837.2,1,44.906,1,1,165,22.19722,-112.294037,33.866824,0,0,1,N,123,123,5,128,128,22.19722,0
33.86645343,-112.2942158,54:37.4,8/16/2011,8,1.09,48.49,11.0838024,0,39.7,50.7838024,3.6,-1.8,38.6,0,3.86,3.86,81,26,371.5,14.2,-1.8,D,837.2,1,44.388,1,1,165,21.82745,-112.294037,33.866824,0,0,1,N,122,122,5,130,130,21.82745,0
33.86645676,-112.2942124,54:38.4,8/16/2011,8,1.02,46.48,11.0838024,0,39.3,50.3838024,3.6,-1.2,38.7,0,3.89,3.9,81,26,371.5,14.2,-1.8,D,837.2,1,43.93,1,1,165,21.63455,-112.294037,33.866824,0,0,1,N,122,122,5,129,129,21.63455,0
33.86646227,-112.2942058,54:39.4,8/16/2011,8,0.93,51.28,11.0838024,0,38.8,49.8838024,3.5,-1.6,38.7,0,3.93,3.93,81,26,371.5,14.2,-1.8,D,837.2,1,43.138,1,1,165,21.18137,-112.294037,33.866824,0,0,1,N,122,122,5,129,129,21.18137,0
33.86646527,-112.2942016,54:40.4,8/16/2011,8,0.93,51.28,11.0838024,0,38.4,49.4838024,3.6,-1.7,38.7,0,3.96,3.96,81,26,371.5,14.2,-1.8,D,835.8,1,42.686,1,1,165,20.85425,-112.294037,33.866824,0,0,1,N,122,122,5,128,128,20.91986,0
33.86646682,-112.2941991,54:41.4,8/16/2011,8,0.94,51.6,11.0838024,0,38,49.0838024,3.6,-0.9,38.6,0,4.08,4.08,81,26,371.5,14.2,-1.8,D,835.7,1,42.445,1,1,165,20.65353,-112.294037,33.866824,0,0,1,N,122,122,5,128,128,20.65353,0
33.86647022,-112.2941958,54:42.4,8/16/2011,8,0.94,50.33,11.0838024,0,36.8,47.8838024,3.6,-1.1,38.6,0,4.11,4.11,81,26,371.5,14.2,-1.8,D,835.7,1,41.982,1,1,165,20.4421,-112.294037,33.866824,0,0,1,N,122,122,5,135,135,20.50945,0
33.86647354,-112.2941925,54:43.4,8/16/2011,8,0.96,48.37,11.0838024,0,36.3,47.3838024,3.6,-1.1,38.7,0,4.2,4.2,81,26,371.5,14.2,-1.8,D,835.7,1,41.531,1,1,165,20.22916,-112.294037,33.866824,0,0,1,N,122,122,5,136,136,20.22916,0
33.8664773,-112.2941858,54:44.4,8/16/2011,8,0.95,49.14,11.0838024,0,36.1,47.1838024,3.6,-1.7,38.7,0,4.29,4.29,81,26,371.5,14.2,-1.8,D,835.7,1,40.928,1,1,165,19.62045,-112.294037,33.866824,0,0,1,N,122,122,5,131,131,19.62045,0
33.86648045,-112.2941818,54:45.4,8/16/2011,8,0.95,49.14,11.0838024,0,36,47.0838024,3.6,-1.7,38.7,0,4.41,4.41,81,26,371.4,14.2,-1.8,D,835.6,1,40.473,1,1,165,19.28506,-112.294037,33.866824,0,0,1,N,122,122,5,127,127,19.28506,0
33.86648563,-112.2941775,54:46.4,8/16/2011,8,1.08,42.84,11.0838024,0,36.2,47.2838024,3.6,-0.9,38.7,0,4.5,4.5,81,26,371.4,14.2,-1.8,D,835.6,1,39.799,1,1,165,19.0248,-112.294037,33.866824,0,0,1,N,122,122,5,124,124,19.0248,0
33.86648899,-112.2941725,54:47.4,8/16/2011,8,1.06,43.36,11.0838024,0,36.2,47.2838024,3.6,-1.2,38.7,0,4.59,4.59,81,26,371.4,14.2,-1.8,D,834.3,1,39.295,1,1,165,18.56144,-112.294037,33.866824,0,0,1,N,122,122,5,121,121,18.74405,0
33.8664923,-112.2941692,54:48.4,8/16/2011,8,1.05,42.95,11.0838024,0,36.3,47.3838024,3.6,-1.5,38.7,0,4.63,4.63,81,26,371.4,14.2,-1.8,D,834.3,1,38.851,1,1,165,18.3082,-112.294037,33.866824,0,0,1,N,122,122,5,112,112,18.3082,0
33.86649564,-112.2941659,54:49.4,8/16/2011,8,1.01,42.72,11.0838024,0,35.2,46.2838024,3.6,-1.7,38.8,0,4.75,4.75,81,26,371.4,14.2,-1.8,D,832.9,1,38.402,1,1,165,18.04892,-112.294037,33.866824,0,0,1,N,122,122,5,115,115,18.01756,0
33.86649888,-112.2941619,54:50.4,8/16/2011,8,1.01,42.72,11.0838024,0,33.6,44.6838024,3.6,-2,38.8,0,4.87,4.87,81,26,371.4,14.2,-1.8,D,832.9,1,37.946,1,1,165,17.69126,-112.294037,33.866824,0,0,1,N,122,122,5,117,117,17.76235,0
33.86650233,-112.2941576,54:51.4,8/16/2011,8,0.93,47.38,11.0838024,0,32.5,43.5838024,3.6,-1.3,38.7,0,4.99,4.99,81,26,371.4,14.2,-1.8,D,832,1,37.46,1,1,165,17.28688,-112.294037,33.866824,0,0,1,N,122,122,5,120,120,17.28688,0
33.86650568,-112.2941542,54:52.4,8/16/2011,8,0.93,43.99,11.0838024,0,31.8,42.8838024,3.7,-1,38.7,0,5.08,5.08,81,26,371.4,14.2,-1.8,D,832,1,37.014,1,1,165,17.00524,-112.294037,33.866824,0,0,1,N,123,123,5,120,120,17.00864,0
33.86650915,-112.2941505,54:53.4,8/16/2011,8,0.93,43.99,11.0838024,0,30.6,41.6838024,3.7,-0.9,38.7,0,5.23,5.23,81,26,371.4,14.2,-1.8,D,830.6,1,36.544,1,1,165,16.66094,-112.294037,33.866824,0,0,1,N,122,122,5,120,120,16.66094,0
33.86651045,-112.2941495,54:54.4,8/16/2011,8,0.94,42.1,11.0838024,0,29,40.0838024,3.6,-1.5,38.7,0,5.32,5.32,81,26,371.4,14.2,-1.8,D,830.6,1,36.38,1,1,165,16.59027,-112.294037,33.866824,0,0,1,N,122,122,5,129,129,16.6553,0
33.86651381,-112.2941462,54:55.4,8/16/2011,8,0.92,41.29,11.0838024,0,28.1,39.1838024,3.7,-1,38.6,0,5.48,5.48,81,26,371.4,14.2,-1.8,D,830.5,1,35.935,1,1,165,16.29582,-112.294037,33.866824,0,0,1,N,123,123,5,130,130,16.35934,0
33.86651792,-112.2941405,54:56.4,8/16/2011,8,0.99,42.59,11.0838024,0,27.5,38.5838024,3.7,-1.5,38.7,0,5.66,5.66,81,26,371.4,14.2,-1.8,D,830.5,1,35.351,1,1,165,15.685,-112.294037,33.866824,0,0,1,N,123,123,5,120,120,15.74928,0
33.8665205,-112.2941379,54:57.4,8/16/2011,8,0.99,40.29,11.0838024,0,27.7,38.7838024,3.5,-1.5,38.7,0,5.75,5.75,81,26,371.4,14.2,-1.8,D,830.5,1,35.01,1,1,165,15.43434,-112.294037,33.866824,0,0,1,N,122,122,5,115,115,15.5008,0
33.86652553,-112.2941346,54:58.4,8/16/2011,8,1.08,36.37,11.0838024,0,26.9,37.9838024,3.7,-1.6,38.7,0,5.96,5.96,81,26,371.4,14.2,-1.8,D,830.5,1,34.391,1,1,165,15.19269,-112.294037,33.866824,0,0,1,N,123,123,5,115,115,15.25846,0
33.8665289,-112.2941313,54:59.4,8/16/2011,8,1.09,36.02,11.0838024,0,26.4,37.4838024,3.6,-1.6,38.7,0,6.02,6.03,81,26,371.4,14.2,-1.8,D,830.5,1,33.949,1,1,165,14.854,-112.294037,33.866824,0,0,1,N,122,122,5,109,109,14.92019,0
33.8665339,-112.294128,55:00.4,8/16/2011,8,1.08,35.4,11.0838024,0,25.7,36.7838024,3.5,-1.3,38.7,0,6.06,6.06,81,26,371.4,14.2,-1.8,D,831,1,33.335,1,1,165,14.59986,-112.294037,33.866824,0,0,1,N,122,122,5,111,111,14.59986,0
33.86653728,-112.2941247,55:01.4,8/16/2011,8,1.09,36.25,11.0838024,0,23.5,34.5838024,3.5,-1.7,38.7,0,6.06,6.06,81,26,371.4,14.2,-1.8,D,831,1,32.896,1,1,165,14.25812,-112.294037,33.866824,0,0,1,N,122,122,5,118,118,14.25812,0
33.86654231,-112.2941215,55:02.4,8/16/2011,8,1.05,33.48,11.0838024,0,22.1,33.1838024,3.7,-1.6,38.7,0,6.06,6.06,81,26,371.3,14.2,-1.8,D,830.9,1,32.279,1,1,165,13.98399,-112.294037,33.866824,0,0,1,N,123,123,5,122,122,13.98399,0
33.86654911,-112.2941161,55:03.4,8/16/2011,8,0.95,34.18,11.0838024,0,21.4,32.4838024,3.6,-0.9,38.7,0,5.96,5.96,81,26,371.3,14.2,-1.8,D,830.9,1,31.426,1,1,165,13.43316,-112.294037,33.866824,0,0,1,N,122,122,5,121,121,13.61055,0
33.86655246,-112.2941128,55:04.5,8/16/2011,8,0.94,32.25,11.0838024,0,19.9,30.9838024,3.6,-1.2,38.7,0,5.87,5.87,81,26,371.3,14.2,-1.8,D,829.5,1,30.993,1,1,165,13.04337,-112.294037,33.866824,0,0,1,N,122,122,5,124,124,13.04337,0
33.86655646,-112.29411,55:05.5,8/16/2011,8,0.94,32.25,11.0838024,0,19.1,30.1838024,3.6,-1.5,38.8,0,5.87,5.87,81,26,371.3,14.2,-1.8,D,829.5,1,30.502,1,1,165,12.75774,-112.294037,33.866824,0,0,1,N,122,122,5,126,126,12.75774,0
33.86655746,-112.29411,55:06.5,8/16/2011,8,0.96,30.68,11.0838024,0,18.3,29.3838024,3.5,-1.1,38.8,0,5.69,5.69,81,26,371.3,14.2,-1.8,D,831.7,1,30.394,1,1,165,12.81257,-112.294037,33.866824,0,0,1,N,122,122,5,131,131,12.86759,0
33.86656418,-112.2941044,55:07.5,8/16/2011,8,1,30.25,11.0838024,0,17.8,28.8838024,3.6,-1.3,38.8,0,5.63,5.63,81,26,371.3,14.2,-1.8,D,831.7,1,29.554,1,1,165,12.16235,-112.294037,33.866824,0,0,1,N,122,122,5,128,128,12.47447,0
33.86656915,-112.2941028,55:08.5,8/16/2011,8,0.97,30.21,11.0838024,0,17.6,28.6838024,3.5,-1.5,38.7,0,5.63,5.63,81,26,371.3,14.2,-1.8,D,832.6,1,28.983,1,1,165,12.10011,-112.294037,33.866824,0,0,1,N,122,122,5,123,123,11.93001,0
33.86657324,-112.2941002,55:09.4,8/16/2011,8,0.97,30.21,11.0838024,0,16.2,27.2838024,3.5,-1.5,38.7,0,5.6,5.6,81,26,371.3,14.2,-1.8,D,832.6,1,28.487,1,1,165,11.81597,-112.294037,33.866824,0,0,1,N,122,122,5,130,130,11.87057,0
33.86657496,-112.294098,55:10.5,8/16/2011,8,1.08,26.09,11.0838024,0,16.2,27.2838024,3.7,-0.6,38.7,0,5.6,5.6,81,26,371.3,14.2,-1.8,D,832.6,1,28.259,1,1,165,11.48766,-112.294037,33.866824,0,0,1,N,123,123,5,127,127,11.54384,0
33.86657996,-112.2940963,55:11.4,8/16/2011,8,1.09,25.31,11.0838024,0,16.3,27.3838024,3.6,-2,38.7,0,5.6,5.6,81,26,371.3,14.2,-1.8,D,833,1,27.683,1,1,165,11.40721,-112.294037,33.866824,0,0,1,N,122,122,5,126,126,11.4652,0
33.86658495,-112.2940929,55:12.5,8/16/2011,8,1.09,24.96,11.0838024,0,17,28.0838024,3.5,-1.2,38.7,0,5.66,5.66,81,26,371.3,14.2,-1.8,D,833,1,27.079,1,1,165,10.99385,-112.294037,33.866824,0,0,1,N,122,122,5,117,117,11.05717,0
33.86659083,-112.2940895,55:13.5,8/16/2011,8,1.06,22.08,11.0838024,0,15.9,26.9838024,3.6,-1.7,38.7,0,5.66,5.66,81,26,371.2,14.2,-1.8,D,832.9,1,26.377,1,1,165,10.58832,-112.294037,33.866824,0,0,1,N,122,122,5,123,123,10.96523,0
33.86659583,-112.2940878,55:14.5,8/16/2011,8,1.04,21.74,11.0838024,0,15,26.0838024,3.6,-1.2,38.8,0,5.66,5.66,81,26,371.2,14.2,-1.8,D,832.9,1,25.802,1,1,165,10.48305,-112.294037,33.866824,0,0,1,N,122,122,5,121,121,10.33546,0
33.86660003,-112.2940855,55:15.5,8/16/2011,8,1.04,21.74,11.0838024,0,13.7,24.7838024,3.6,-1.8,38.8,0,5.66,5.66,81,26,371.2,14.2,-1.8,D,831.6,1,25.304,1,1,165,10.18701,-112.294037,33.866824,0,0,1,N,122,122,5,128,128,10.24536,0
33.86660422,-112.2940829,55:16.5,8/16/2011,8,0.93,22.43,11.0838024,0,13.1,24.1838024,3.5,-1.2,38.8,0,5.66,5.66,81,26,371.2,14.2,-1.8,D,831.6,1,24.802,1,1,165,9.828363,-112.294037,33.866824,0,0,1,N,122,122,5,127,127,9.828363,0
33.86660918,-112.2940812,55:17.5,8/16/2011,8,0.95,21.26,11.0838024,0,13.2,24.2838024,3.7,-1.2,38.7,0,5.78,5.78,81,26,371.2,14.2,-1.8,D,830.2,1,24.234,1,1,165,9.697157,-112.294037,33.866824,0,0,1,N,123,123,5,124,124,9.697157,0
33.86661336,-112.2940791,55:18.5,8/16/2011,8,0.94,19.36,11.0838024,0,12.8,23.8838024,3.6,-1.4,38.7,0,5.78,5.78,81,26,371.2,14.2,-1.8,D,830.2,1,23.742,1,1,165,9.421869,-112.294037,33.866824,0,0,1,N,122,122,5,123,123,9.483192,0
33.86661761,-112.2940769,55:19.5,8/16/2011,8,0.94,19.36,11.0838024,0,12.4,23.4838024,3.6,-1.4,38.7,0,5.78,5.78,81,26,371.2,14.2,-1.8,D,830.1,1,23.243,1,1,165,9.115163,-112.294037,33.866824,0,0,1,N,122,122,5,121,121,9.177406,0
33.86662008,-112.2940766,55:20.5,8/16/2011,8,0.97,24.58,11.0838024,0,11.6,22.6838024,3.6,-1.4,38.7,0,5.78,5.78,81,26,371.2,14.2,-1.8,D,830.1,1,22.968,1,1,165,9.158516,-112.294037,33.866824,0,0,1,N,122,122,5,126,126,9.217863,0
33.86662672,-112.2940725,55:21.5,8/16/2011,8,1.09,20.91,11.0838024,0,10.9,21.9838024,3.6,-2.2,38.8,0,5.84,5.84,81,26,371.2,14.2,-1.8,D,830.1,1,22.181,1,1,165,8.497171,-112.294037,33.866824,0,0,1,N,122,122,5,124,124,8.558455,0
33.86663173,-112.2940708,55:22.5,8/16/2011,8,1.09,19.81,11.0838024,0,10.5,21.5838024,3.6,-1.7,38.7,0,5.96,5.96,81,26,371.2,14.2,-1.8,D,830.1,1,21.607,1,1,165,8.316211,-112.294037,33.866824,0,0,1,N,122,122,5,123,123,8.378418,0
33.86663591,-112.2940696,55:23.5,8/16/2011,8,1.12,20.18,11.0838024,0,9.9,20.9838024,3.6,-1.5,38.7,0,6.06,6.06,81,26,371.2,14.2,-1.8,D,834.6,1,21.13,1,1,165,8.184099,-112.294037,33.866824,0,0,1,N,122,122,5,120,120,8.184099,0
33.86664023,-112.2940676,55:24.5,8/16/2011,8,1.12,20.18,11.0838024,0,10,21.0838024,3.6,-2,38.7,0,6.06,6.06,81,26,371.2,14.2,-1.8,D,834.6,1,20.629,1,1,165,7.867472,-112.294037,33.866824,0,0,1,N,122,122,5,118,118,7.867472,0
33.8666426,-112.2940671,55:25.5,8/16/2011,8,1.08,18.4,11.0838024,0,9.8,20.8838024,3.6,-1.4,38.6,0,6.09,6.09,81,26,371.2,14.2,-1.8,D,834.6,1,20.362,1,1,165,7.855702,-112.294037,33.866824,0,0,1,N,122,122,5,118,118,7.855702,0
33.86665175,-112.2940643,55:26.5,8/16/2011,8,1.05,15.56,11.0838024,0,8.3,19.3838024,3.6,-1.7,38.6,0,6.27,6.27,81,26,371.2,14.2,-1.8,D,834.5,1,19.319,1,1,165,7.486443,-112.294037,33.866824,0,0,1,N,122,122,5,125,125,7.548595,0
33.86665613,-112.2940624,55:27.6,8/16/2011,8,1.05,15.56,11.0838024,0,7.7,18.7838024,3.6,-0.9,38.7,0,6.39,6.39,81,26,371.2,14.2,-1.8,D,834.5,1,18.814,1,1,165,7.169315,-112.294037,33.866824,0,0,1,N,122,122,5,126,126,7.231632,0
33.86665852,-112.2940619,55:28.6,8/16/2011,8,0.92,16.43,11.0838024,0,7,18.0838024,3.7,-1.4,38.7,0,6.39,6.39,81,26,371.1,14.2,-1.8,D,834.5,1,18.544,1,1,165,7.128986,-112.294037,33.866824,0,0,1,N,123,123,5,130,130,7.188642,0
33.86666422,-112.2940597,55:29.5,8/16/2011,8,0.96,15.56,11.0838024,0,6.7,17.7838024,3.6,-1.2,38.7,0,6.39,6.39,81,26,371.1,14.2,-1.8,D,834.5,1,17.89,1,1,165,6.71588,-112.294037,33.866824,0,0,1,N,122,122,5,127,127,6.71588,0
33.86666864,-112.294058,55:30.5,8/16/2011,8,0.96,15.56,11.0838024,0,6.1,17.1838024,3.6,-0.8,38.7,0,6.51,6.51,81,26,371.1,14.2,-1.8,D,832.2,1,17.383,1,1,165,6.40618,-112.294037,33.866824,0,0,1,N,122,122,5,129,129,6.40618,0
33.86666933,-112.2940574,55:31.6,8/16/2011,8,0.93,13.72,11.0838024,0,5.1,16.1838024,3.7,-1.7,38.7,0,6.63,6.63,81,26,371.1,14.2,-1.8,D,832.2,1,17.302,1,1,165,6.245291,-112.294037,33.866824,0,0,1,N,123,123,5,133,133,6.245291,0
33.86667438,-112.2940574,55:32.6,8/16/2011,8,0.98,18.08,11.0838024,0,4.7,15.7838024,3.6,-1.3,38.7,0,6.69,6.69,81,26,371.1,14.2,-1.8,D,832.2,1,16.743,1,1,165,6.456156,-112.294037,33.866824,0,0,1,N,122,122,5,135,135,6.456156,0
33.86668089,-112.2940547,55:33.6,8/16/2011,8,1.09,14.44,11.0838024,0,4.8,15.8838024,3.5,-1.2,38.8,0,6.88,6.88,81,26,371.1,14.2,-1.8,D,832.2,1,15.997,1,1,165,5.862956,-112.294037,33.866824,0,0,1,N,122,122,5,132,132,5.862956,0
33.86668589,-112.294053,55:34.6,8/16/2011,8,1.1,14.06,11.0838024,0,4.4,15.4838024,3.6,-1.3,38.7,0,6.94,6.94,81,26,371.1,14.2,-1.8,D,832.2,1,15.428,1,1,165,5.506036,-112.294037,33.866824,0,0,1,N,122,122,5,130,130,5.506036,0
33.86669035,-112.2940515,55:35.6,8/16/2011,8,1.1,14.06,11.0838024,0,5.2,16.2838024,3.6,-1.3,38.7,0,6.97,6.97,81,26,371.1,14.2,-1.8,D,832.2,1,14.922,1,1,165,5.153519,-112.294037,33.866824,0,0,1,N,122,122,5,122,122,5.153519,0
33.86669756,-112.2940497,55:36.6,8/16/2011,8,1.1,13.45,11.0838024,0,4.3,15.3838024,3.6,-1.7,38.6,0,6.94,6.94,81,26,371.1,14.2,-1.8,D,833.5,1,14.108,1,1,165,4.767754,-112.294037,33.866824,0,0,1,N,122,122,5,125,125,4.767754,0
33.86670208,-112.2940482,55:37.6,8/16/2011,8,1.1,13.45,11.0838024,0,3.9,14.9838024,3.6,-1.6,38.7,0,7.12,7.12,81,26,371.1,14.2,-1.8,D,833.5,1,13.597,1,1,165,4.36869,-112.294037,33.866824,0,0,1,N,122,122,5,125,125,4.36869,0
33.86670526,-112.2940472,55:38.6,8/16/2011,8,1.06,10.41,11.0838024,0,3.2,14.2838024,3.6,-1.1,38.7,0,7.18,7.18,81,26,371.1,14.2,-1.8,D,833.4,1,13.237,1,1,165,4.088744,-112.294037,33.866824,0,0,1,N,122,122,5,127,127,4.088744,0
33.86671036,-112.2940472,55:39.6,8/16/2011,8,1.09,9.73,11.0838024,0,2.4,13.4838024,3.6,-1.5,38.7,0,7.15,7.15,81,26,371,14.2,-1.8,D,833.4,1,12.672,1,1,165,4.279116,-112.294037,33.866824,0,0,1,N,122,122,5,133,133,4.279116,0
33.86671361,-112.2940456,55:40.6,8/16/2011,8,0.98,8.83,11.0838024,0,2,13.0838024,3.7,-1.2,38.7,0,7.06,7.06,81,26,371,14.2,-1.8,D,833.4,1,12.301,1,1,165,3.711206,-112.294037,33.866824,0,0,1,N,123,123,5,129,129,3.711206,0
33.86671861,-112.2940456,55:41.6,8/16/2011,8,0.99,8.1,11.0838024,0,2.4,13.4838024,3.5,-1.2,38.7,0,7.43,7.43,81,26,371,14.2,-1.8,D,834.3,1,11.746,1,1,165,3.894841,-112.294037,33.866824,0,0,1,N,122,122,5,130,130,3.894841,0
33.86672361,-112.294044,55:42.6,8/16/2011,8,1,8.12,11.0838024,0,1.6,12.6838024,3.5,-1.4,38.7,0,7.49,7.49,81,26,371,14.2,-1.8,D,834.3,1,11.181,1,1,165,3.311588,-112.294037,33.866824,0,0,1,N,122,122,5,131,131,3.311588,0
33.8667309,-112.2940431,55:43.6,8/16/2011,8,1.03,11.63,11.0838024,0,1.3,12.3838024,3.6,-1.1,38.8,0,7.49,7.49,81,26,371,14.2,-1.8,D,834.3,1,10.368,1,1,165,3.111832,-112.294037,33.866824,0,0,1,N,122,122,5,132,132,3.111832,0
33.8667359,-112.2940414,55:44.6,8/16/2011,8,1.01,12.36,11.0838024,0,1,12.0838024,3.6,-1.2,38.7,0,7.55,7.55,81,26,371,14.2,-1.8,D,834.3,1,9.805,1,1,165,2.392301,-112.294037,33.866824,0,0,1,N,122,122,5,129,129,2.392301,0
33.86674044,-112.2940403,55:45.6,8/16/2011,8,1.01,12.36,11.0838024,0,0.1,11.1838024,3.5,-1.3,38.7,0,7.58,7.58,81,26,371,14.2,-1.8,D,833.3,1,9.296,1,1,165,1.868999,-112.294037,33.866824,0,0,1,N,122,122,5,131,131,1.868999,0
33.86674424,-112.2940398,55:46.6,8/16/2011,8,1.07,10.11,11.0838024,0,0.4,11.4838024,3.6,-1,38.7,0,7.61,7.61,81,26,371,14.2,-1.8,D,833.3,1,8.873,1,1,165,1.661736,-112.294037,33.866824,0,0,1,N,122,122,5,130,130,1.661736,0
33.86674879,-112.2940387,55:47.6,8/16/2011,8,1.07,10.11,11.0838024,0,359.8,10.8838024,3.6,-1.4,38.8,0,7.58,7.58,81,26,371,14.2,-1.8,D,833.3,1,8.364,1,1,165,1.090143,-112.294037,33.866824,0,0,1,N,122,122,5,127,127,1.090143,0
33.86675198,-112.2940392,55:48.6,8/16/2011,8,1.07,10.58,11.0838024,0,358.9,9.983802404,3.5,-1.1,38.7,0,7.58,7.58,81,26,371,14.2,-1.8,D,833.3,1,8.011,1,1,165,1.449715,-112.294037,33.866824,0,0,1,N,122,122,5,136,136,1.449715,0
33.86675703,-112.2940375,55:49.6,8/16/2011,8,1.06,8.25,11.0838024,0,358.6,9.683802404,3.7,-0.9,38.7,0,7.58,7.58,81,26,371,14.2,-1.8,D,834.2,1,7.447,1,1,165,0.3873911,-112.294037,33.866824,0,0,1,N,123,123,5,131,131,0.3873911,0
33.86676203,-112.2940376,55:50.6,8/16/2011,8,1.04,4.73,11.0838024,0,358.7,9.783802404,3.5,-1.7,38.7,0,7.58,7.58,81,26,371,14.2,-1.8,D,834.2,1,6.891,1,1,165,0.4393055,-112.294037,33.866824,0,0,1,N,122,122,5,131,131,0.4393055,0
33.86676699,-112.2940359,55:51.7,8/16/2011,8,1.06,3.6,11.0838024,0,358.9,9.983802404,3.6,-0.8,38.7,0,7.67,7.67,81,26,371,14.2,-1.8,D,835,1,6.342,1,1,165,359.0837,-112.294037,33.866824,0,0,1,N,122,122,5,120,120,359.0837,0
33.86677199,-112.2940359,55:52.7,8/16/2011,8,1.03,2.97,11.0838024,0,358.6,9.683802404,3.5,-1.9,38.7,0,7.73,7.73,81,26,371,14.2,-1.8,D,835,1,5.785,1,1,165,358.9904,-112.294037,33.866824,0,0,1,N,122,122,5,121,121,358.9904,0
33.86677703,-112.2940359,55:53.7,8/16/2011,8,1.02,3.06,11.0838024,0,358.3,9.383802404,3.5,-1.1,38.7,0,7.79,7.79,81,26,370.9,14.2,-1.8,D,835,1,5.224,1,1,165,358.8971,-112.294037,33.866824,0,0,1,N,122,122,5,123,123,358.8971,0
33.866782,-112.294036,55:54.7,8/16/2011,8,1.05,2.32,11.0838024,0,356.8,7.883802404,3.5,-2.2,38.7,0,7.88,7.88,81,26,370.9,14.2,-1.8,D,835,1,4.671,1,1,165,358.8583,-112.294037,33.866824,0,0,1,N,122,122,5,133,133,358.8583,0
33.866787,-112.294036,55:55.7,8/16/2011,8,1.02,2.54,11.0838024,0,357.6,8.683802404,3.6,-2.2,38.7,0,8.03,8.03,81,26,370.9,14.2,-1.8,D,835,1,4.115,1,1,165,358.7334,-112.294037,33.866824,0,0,1,N,122,122,5,127,127,358.7334,0
33.86679517,-112.2940347,55:56.7,8/16/2011,8,1.04,6.28,11.0838024,0,358,9.083802404,3.4,-3.6,38.7,0,8.03,8.03,81,26,370.9,14.2,-1.8,D,831.7,2,104.333,1,1,165,316.2549,-112.294816,33.867473,0,0,1,N,122,122,5,5,5,316.2549,0
33.86679976,-112.2940339,55:57.7,8/16/2011,8,1.04,6.28,11.0838024,0,354.2,5.283802404,3.4,-3.9,38.7,0,8.07,8.07,81,26,370.9,14.2,-1.8,D,831.7,2,104.01,1,1,165,316.034,-112.294816,33.867473,0,0,1,N,122,122,5,5,5,316.034,0
33.86680204,-112.2940348,55:58.7,8/16/2011,8,0.98,7.28,11.0838024,0,349.5,0.583802404,3.7,-2,38.7,0,8,8.01,81,26,370.9,14.2,-1.8,D,829.5,2,103.773,1,1,165,315.9685,-112.294816,33.867473,0,0,1,N,123,123,5,11,11,315.9685,0
33.86680537,-112.2940335,55:59.7,8/16/2011,8,0.96,11.99,11.0838024,0,342.1,353.1838024,3.8,-2.7,38.8,0,7.97,7.97,81,26,370.9,14.2,-1.8,D,829.5,2,103.587,1,1,165,315.7804,-112.294816,33.867473,0,0,1,N,123,123,5,25,25,315.7804,0
33.86681033,-112.294034,56:00.7,8/16/2011,8,0.92,6.41,11.0838024,0,337.4,348.4838024,3.8,-1.8,38.7,0,8,8,81,26,370.9,14.2,-1.8,D,826.9,2,103.163,1,1,165,315.5834,-112.294816,33.867473,0,0,1,N,123,123,5,39,39,315.5834,0
33.86681527,-112.2940344,56:01.7,8/16/2011,8,0.91,359.69,11.0838024,0,332.7,343.7838024,3.8,-1.7,38.7,0,7.97,7.97,81,26,370.9,14.2,-1.8,D,826.9,2,102.748,1,1,165,315.3824,-112.294816,33.867473,0,0,1,N,124,124,5,49,49,315.3824,0
33.86681853,-112.2940347,56:02.7,8/16/2011,8,0.91,350.82,11.0838024,0,328.8,339.8838024,3.9,-2.4,38.7,0,8.03,8.03,81,26,370.9,14.2,-1.8,D,822.4,2,102.469,1,1,165,315.2516,-112.294816,33.867473,0,0,1,N,124,124,5,61,61,315.2516,0
33.86682362,-112.2940367,56:03.7,8/16/2011,8,0.95,344.39,11.0838024,0,325.5,336.5838024,3.8,-1.4,38.7,0,8.09,8.09,81,26,370.9,14.2,-1.8,D,822.4,2,101.936,1,1,165,315.1024,-112.294816,33.867473,0,0,1,N,123,123,5,69,69,315.1024,0
33.86682668,-112.2940386,56:04.7,8/16/2011,8,1,338.23,11.0838024,0,322.2,333.2838024,3.8,-1.3,38.7,0,8.15,8.15,81,26,370.9,14.2,-1.8,D,822.4,2,101.574,1,1,165,315.0357,-112.294816,33.867473,0,0,1,N,123,123,5,77,77,315.0357,0
33.86683333,-112.2940417,56:05.7,8/16/2011,8,1.06,329.86,11.0838024,0,319.3,330.3838024,3.9,-0.6,38.7,0,8.15,8.16,81,26,370.9,14.2,-1.8,D,822.4,2,101.063,1,1,165,314.889,-112.294816,33.867473,0,0,1,N,124,124,5,84,84,314.889,0
33.86683824,-112.2940445,56:06.7,8/16/2011,8,1.06,328.58,11.0838024,0,315.7,326.7838024,3.7,-1.2,38.7,0,8.18,8.18,81,26,370.9,14.2,-1.8,D,823.2,2,100.278,1,1,165,314.7385,-112.294816,33.867473,0,0,1,N,123,123,5,89,89,314.7385,0
33.86684324,-112.294048,56:07.7,8/16/2011,8,1.04,328.27,11.0838024,0,314.4,325.4838024,3.8,-0.9,38.7,0,8.09,8.1,81,26,370.9,14.2,-1.8,D,823.2,2,99.662,1,1,165,314.6397,-112.294816,33.867473,0,0,1,N,123,123,5,93,93,314.6397,0
33.86684649,-112.2940513,56:08.7,8/16/2011,8,1.05,326.38,11.0838024,0,312.2,323.2838024,3.7,-0.2,38.7,0,7.88,7.88,81,26,370.8,14.2,-1.8,D,826.7,2,99.186,1,1,165,314.6176,-112.294816,33.867473,0,0,1,N,123,123,5,99,99,314.6176,0
33.86685148,-112.2940548,56:09.7,8/16/2011,8,0.98,319.79,11.0838024,0,310.2,321.2838024,3.7,-1.2,38.7,0,7.85,7.85,81,26,370.8,14.2,-1.8,D,827.1,2,98.571,1,1,165,314.5171,-112.294816,33.867473,0,0,1,N,123,123,5,104,104,314.5171,0
33.86685502,-112.2940583,56:10.7,8/16/2011,8,0.98,319.79,11.0838024,0,308,319.0838024,3.6,-1.1,38.7,0,7.91,7.91,81,26,370.8,14.2,-1.8,D,827.1,2,98.058,1,1,165,314.489,-112.294816,33.867473,0,0,1,N,122,122,5,108,108,314.489,0
33.86685608,-112.2940597,56:11.7,8/16/2011,8,0.98,317.18,11.0838024,0,306.1,317.1838024,3.6,-1.6,38.7,0,8.4,8.4,81,26,370.8,14.2,-1.8,D,828.8,2,97.89,1,1,165,314.4897,-112.294816,33.867473,0,0,1,N,122,122,5,99,99,314.4897,0
33.86685939,-112.2940648,56:12.7,8/16/2011,8,0.99,315.42,11.0838024,0,304.3,315.3838024,3.8,-1.4,38.7,0,8.4,8.4,81,26,370.8,14.2,-1.8,D,828.8,2,97.295,1,1,165,314.5297,-112.294816,33.867473,0,0,1,N,123,123,5,109,109,314.5297,0
33.86686324,-112.294069,56:13.7,8/16/2011,8,0.98,312.21,11.0838024,0,302.4,313.4838024,4,0.1,38.7,0,8.4,8.4,81,26,370.8,14.2,-1.8,D,829.7,2,96.718,1,1,165,314.5102,-112.294816,33.867473,0,0,1,N,123,123,5,115,115,314.5102,0
33.86686481,-112.2940741,56:14.8,8/16/2011,8,1.05,307.74,11.0838024,0,300.6,311.6838024,3.9,-0.9,38.7,0,8.4,8.4,81,26,370.8,14.2,-1.8,D,829.7,2,96.259,1,1,165,314.6331,-112.294816,33.867473,0,0,1,N,122,122,5,129,129,314.6331,0
33.86686833,-112.29408,56:15.8,8/16/2011,8,1.11,308.12,11.0838024,0,299.7,310.7838024,3.7,-0.2,38.7,0,8.4,8.4,81,26,370.8,14.2,-1.8,D,830.1,2,95.671,1,1,165,314.6777,-112.294816,33.867473,0,0,1,N,122,122,5,137,137,314.6777,0
33.86687289,-112.2940867,56:16.8,8/16/2011,8,1.12,308.07,11.0838024,0,298.7,309.7838024,3.7,0.5,38.7,0,8.37,8.37,81,26,370.8,14.2,-1.8,D,830.1,2,94.796,1,1,165,314.7431,-112.294816,33.867473,0,0,1,N,122,122,5,143,143,314.7431,0
33.8668762,-112.2940917,56:17.8,8/16/2011,8,1.13,306.88,11.0838024,0,299,310.0838024,3.5,-0.2,38.7,0,8.34,8.34,81,26,370.8,14.2,-1.8,D,830.1,2,94.213,1,1,165,314.7801,-112.294816,33.867473,0,0,1,N,122,122,5,141,141,314.7801,0
33.86687953,-112.2940967,56:18.8,8/16/2011,8,1.11,305.68,11.0838024,0,298.9,309.9838024,3.4,-0.2,38.7,0,8.34,8.34,81,26,370.8,14.2,-1.8,D,830.1,2,93.624,1,1,165,314.8173,-112.294816,33.867473,0,0,1,N,122,122,5,142,142,314.8173,0
33.86688291,-112.2941017,56:19.8,8/16/2011,8,1.07,308.31,11.0838024,0,299.9,310.9838024,3.5,-1,38.7,0,8.33,8.34,81,26,370.8,14.2,-1.8,D,831.4,2,93.03,1,1,165,314.8548,-112.294816,33.867473,0,0,1,N,122,122,5,136,136,314.8548,0
33.866885,-112.2941033,56:20.8,8/16/2011,8,1.06,307.71,11.0838024,0,300.5,311.5838024,3.5,-1,38.6,0,8.24,8.25,81,26,370.8,14.2,-1.8,D,831.4,2,92.517,1,1,165,314.8739,-112.294816,33.867473,0,0,1,N,122,122,5,132,132,314.8739,0
33.86688792,-112.29411,56:21.8,8/16/2011,8,1.04,305.72,11.0838024,0,301.5,312.5838024,3.7,-1,38.7,0,8.21,8.22,81,26,370.8,14.2,-1.8,D,835,2,92.097,1,1,165,314.9437,-112.294816,33.867473,0,0,1,N,123,123,5,126,126,314.9437,0
33.86689124,-112.294115,56:22.8,8/16/2011,8,1.01,305.4,11.0838024,0,301,312.0838024,3.7,-0.5,38.7,0,8.18,8.19,81,26,370.8,14.2,-1.8,D,835,2,91.509,1,1,165,314.9845,-112.294816,33.867473,0,0,1,N,123,123,5,130,130,314.9845,0
33.86689353,-112.2941208,56:23.8,8/16/2011,8,1.03,306.29,11.0838024,0,301.2,312.2838024,3.7,-0.4,38.7,0,8.15,8.16,81,26,370.8,14.2,-1.8,D,836.3,2,90.949,1,1,165,315.1112,-112.294816,33.867473,0,0,1,N,123,123,5,129,129,315.1112,0
33.86689662,-112.294125,56:24.8,8/16/2011,8,1.03,306.29,11.0838024,0,300.7,311.7838024,3.7,-0.4,38.7,0,8.18,8.19,81,26,370.7,14.2,-1.8,D,836.3,2,90.436,1,1,165,315.1289,-112.294816,33.867473,0,0,1,N,123,123,5,133,133,315.1289,0
33.86689833,-112.2941283,56:25.8,8/16/2011,8,1.08,302.76,11.0838024,0,301,312.0838024,3.7,-0.6,38.7,0,8.06,8.06,81,26,370.7,14.2,-1.8,D,836.3,2,90.155,1,1,165,315.1604,-112.294816,33.867473,0,0,1,N,123,123,5,131,131,315.1604,0
33.86690149,-112.2941325,56:26.8,8/16/2011,8,1.08,302.76,11.0838024,0,301.3,312.3838024,3.7,-0.4,38.7,0,6.97,6.97,81,26,370.7,14.2,-1.8,D,837.5,2,89.557,1,1,165,315.2023,-112.294816,33.867473,0,0,1,N,122,122,5,131,131,315.1992,0
33.86690317,-112.2941375,56:27.8,8/16/2011,8,1.08,302.41,11.0838024,0,301.1,312.1838024,3.7,-0.6,38.7,0,7.06,7.06,81,26,370.7,14.2,-1.8,D,837.5,2,89.1,1,1,165,315.3276,-112.294816,33.867473,0,0,1,N,123,123,5,132,132,315.3276,0
33.86690643,-112.2941425,56:28.8,8/16/2011,8,1.12,305.71,11.0838024,0,300.6,311.6838024,3.7,0.1,38.7,0,7.55,7.55,81,26,370.7,14.2,-1.8,D,837.5,2,88.522,1,1,165,315.373,-112.294816,33.867473,0,0,1,N,123,123,5,136,136,315.373,0
33.86691185,-112.2941508,56:29.8,8/16/2011,8,1.13,307.5,11.0838024,0,300.3,311.3838024,3.5,0,38.7,0,7.55,7.55,81,26,370.7,14.2,-1.8,D,837.5,2,87.551,1,1,165,315.455,-112.294816,33.867473,0,0,1,N,122,122,5,140,140,315.455,0
33.86691394,-112.2941542,56:30.8,8/16/2011,8,1.13,305.94,11.0838024,0,300.6,311.6838024,3.5,-0.2,38.7,0,7.67,7.67,81,26,370.7,14.2,-1.8,D,837.5,2,87.169,1,1,165,315.4919,-112.294816,33.867473,0,0,1,N,122,122,5,141,141,315.4919,0
33.86691853,-112.2941608,56:31.8,8/16/2011,8,1.08,308.12,11.0838024,0,301.6,312.6838024,3.7,-1.1,38.7,0,7.67,7.67,81,26,370.7,14.2,-1.8,D,837.5,2,86.375,1,1,165,315.5446,-112.294816,33.867473,0,0,1,N,123,123,5,133,133,315.5446,0
33.86692188,-112.2941658,56:32.8,8/16/2011,8,1.06,308.34,11.0838024,0,301.3,312.3838024,3.7,-1,38.8,0,7.58,7.58,81,26,370.7,14.2,-1.8,D,837.5,2,85.787,1,1,165,315.5902,-112.294816,33.867473,0,0,1,N,123,123,5,135,135,315.5902,0
33.86692503,-112.2941699,56:33.8,8/16/2011,8,1.06,308.34,11.0838024,0,301.9,312.9838024,3.6,-0.6,38.7,0,7.52,7.52,81,26,370.7,14.2,-1.8,D,837.5,2,85.269,1,1,165,315.6089,-112.294816,33.867473,0,0,1,N,122,122,5,134,134,315.6056,0
33.86692485,-112.2941724,56:34.8,8/16/2011,8,1.03,306.64,11.0838024,0,301.1,312.1838024,3.6,-0.8,38.7,0,7.42,7.42,81,26,370.7,14.2,-1.8,D,837.5,2,85.121,1,1,165,315.7298,-112.294816,33.867473,0,0,1,N,122,122,5,141,141,315.7254,0
33.86692896,-112.2941775,56:35.8,8/16/2011,8,1.03,307.31,11.0838024,0,301.6,312.6838024,3.4,-0.4,38.7,0,7.42,7.42,81,26,370.7,14.2,-1.8,D,837.5,2,84.47,1,1,165,315.739,-112.294816,33.867473,0,0,1,N,122,122,5,137,137,315.7747,0
33.86693356,-112.2941841,56:36.8,8/16/2011,8,1.01,306.91,11.0838024,0,301,312.0838024,3.4,-1,38.7,0,7.36,7.36,81,26,370.7,14.2,-1.8,D,837.5,2,83.677,1,1,165,315.7946,-112.294816,33.867473,0,0,1,N,122,122,5,143,143,315.7946,0
33.86693333,-112.2941867,56:37.9,8/16/2011,8,1.09,302.53,11.0838024,0,302.3,313.3838024,3.4,-1.4,38.6,0,7.27,7.27,81,26,370.7,14.2,-1.8,D,837.5,2,83.163,1,1,165,315.8092,-112.294816,33.867473,0,0,1,N,122,122,5,135,135,315.8092,0
33.86693667,-112.2941917,56:38.9,8/16/2011,8,1.07,303.18,11.0838024,0,301.8,312.8838024,3.5,-2,38.7,0,7.21,7.21,81,26,370.6,14.2,-1.8,D,838.3,2,83.017,1,1,165,315.9378,-112.294816,33.867473,0,0,1,N,122,122,5,143,143,315.9378,0
33.86694,-112.2941967,56:39.9,8/16/2011,8,1.13,306.77,11.0838024,0,303,314.0838024,3.5,-1.2,38.7,0,7.15,7.15,81,26,370.6,14.2,-1.8,D,838.3,2,82.429,1,1,165,315.9869,-112.294816,33.867473,0,0,1,N,122,122,5,136,136,315.9869,0
33.86694397,-112.2942025,56:40.9,8/16/2011,8,1.11,306.99,11.0838024,0,302.5,313.5838024,3.5,-1.2,38.7,0,7,7,81,26,370.6,14.2,-1.8,D,838.3,2,81.666,1,1,165,316.0812,-112.294816,33.867473,0,0,1,N,123,123,5,139,139,316.037,0
33.86694667,-112.2942067,56:41.9,8/16/2011,8,1.12,307.03,11.0838024,0,303.2,314.2838024,3.7,-0.9,38.7,0,6.94,6.94,81,26,370.6,14.2,-1.8,D,837.4,2,81.152,1,1,165,316.0933,-112.294816,33.867473,0,0,1,N,123,123,5,136,136,316.0933,0
33.86695,-112.2942117,56:42.9,8/16/2011,8,1.13,307.91,11.0838024,0,302.9,313.9838024,3.7,-0.9,38.7,0,6.78,6.79,81,26,370.6,14.2,-1.8,D,837.4,2,80.668,1,1,165,316.1445,-112.294816,33.867473,0,0,1,N,123,123,5,138,138,316.142,0
33.86695531,-112.2942191,56:43.9,8/16/2011,8,1.07,311.15,11.0838024,0,303.3,314.3838024,3.8,-0.5,38.6,0,6.66,6.67,81,26,370.6,14.2,-1.8,D,837.3,2,79.693,1,1,165,316.2472,-112.294816,33.867473,0,0,1,N,123,123,5,141,141,316.2472,0
33.86695667,-112.2942217,56:44.9,8/16/2011,8,1.09,311.78,11.0838024,0,303.1,314.1838024,3.7,-0.2,38.7,0,6.6,6.61,81,26,370.6,14.2,-1.8,D,837.3,2,79.18,1,1,165,316.2601,-112.294816,33.867473,0,0,1,N,123,123,5,143,143,316.2601,0
33.86695898,-112.2942275,56:45.9,8/16/2011,8,1.02,308.67,11.0838024,0,303.4,314.4838024,3.4,0.3,38.7,0,6.45,6.45,81,26,370.6,14.2,-1.8,D,837.3,2,78.865,1,1,165,316.4474,-112.294816,33.867473,0,0,1,N,122,122,5,143,143,316.4474,0
33.86696167,-112.29423,56:46.9,8/16/2011,8,1.03,308.35,11.0838024,0,303.5,314.5838024,3.3,-0.9,38.7,0,6.33,6.33,81,26,370.6,14.2,-1.8,D,837.3,2,78.35,1,1,165,316.4567,-112.294816,33.867473,0,0,1,N,121,121,5,143,143,316.4567,0
33.866965,-112.294235,56:47.9,8/16/2011,8,1.03,307.1,11.0838024,0,304.1,315.1838024,3.4,-0.6,38.7,0,6.3,6.3,81,26,370.5,14.2,-1.8,D,837.2,2,77.973,1,1,165,316.4285,-112.294816,33.867473,0,0,1,N,122,122,5,143,143,316.4285,0
33.86696833,-112.29424,56:48.9,8/16/2011,8,1.03,308.26,11.0838024,0,304.9,315.9838024,3.5,-0.1,38.7,0,6.3,6.3,81,26,370.5,14.2,-1.8,D,837.2,2,77.386,1,1,165,316.4851,-112.294816,33.867473,0,0,1,N,122,122,5,140,140,316.4851,0
33.86697203,-112.2942473,56:49.9,8/16/2011,8,1.08,306.05,11.0838024,0,305.9,316.9838024,3.7,-1.3,38.7,0,6.3,6.3,81,26,370.5,14.2,-1.8,D,837.2,2,76.553,1,1,165,316.6917,-112.294816,33.867473,0,0,1,N,124,124,5,140,140,316.6923,0
33.86697333,-112.29425,56:50.9,8/16/2011,8,1.06,305.99,11.0838024,0,306.3,317.3838024,3.8,-1.5,38.7,0,6.21,6.21,81,26,370.5,14.2,-1.8,D,837.2,2,76.038,1,1,165,316.6868,-112.294816,33.867473,0,0,1,N,123,123,5,136,136,316.6884,0
33.86697667,-112.294255,56:51.9,8/16/2011,8,1.12,309.07,11.0838024,0,306.4,317.4838024,3.7,-0.8,38.7,0,6.06,6.06,81,26,370.5,14.2,-1.8,D,837.2,2,75.761,1,1,165,316.749,-112.294816,33.867473,0,0,1,N,123,123,5,139,139,316.749,0
33.86698,-112.2942583,56:52.9,8/16/2011,8,1.11,312.02,11.0838024,0,307.1,318.1838024,3.6,-0.3,38.7,0,5.96,5.96,81,26,370.5,14.2,-1.8,D,837.2,2,75.175,1,1,165,316.8099,-112.294816,33.867473,0,0,1,N,122,122,5,139,139,316.812,0
33.86698333,-112.2942633,56:53.9,8/16/2011,8,1.12,310.65,11.0838024,0,308,319.0838024,3.3,-0.2,38.7,0,5.9,5.9,81,26,370.5,14.2,-1.8,D,837.2,2,74.694,1,1,165,316.7836,-112.294816,33.867473,0,0,1,N,121,121,5,133,133,316.7836,0
33.86699044,-112.2942705,56:54.9,8/16/2011,8,1.12,312.14,11.0838024,0,308.5,319.5838024,3.4,-1.9,38.6,0,5.87,5.87,81,26,370.5,14.2,-1.8,D,837.2,2,73.593,1,1,165,316.813,-112.294816,33.867473,0,0,1,N,122,122,5,133,133,316.813,0
33.86699167,-112.2942733,56:55.9,8/16/2011,8,1.08,314.1,11.0838024,0,308.7,319.7838024,3.5,-1.8,38.6,0,5.87,5.87,81,26,370.5,14.2,-1.8,D,837.2,2,73.079,1,1,165,316.7951,-112.294816,33.867473,0,0,1,N,122,122,5,132,132,316.7951,0
33.86699571,-112.2942774,56:56.9,8/16/2011,8,1.05,317.46,11.0838024,0,308.7,319.7838024,3.6,-2.2,38.7,0,5.75,5.75,81,26,370.5,14.2,-1.8,D,836.6,2,72.731,1,1,165,316.8622,-112.294816,33.867473,0,0,1,N,122,122,5,135,135,316.8622,0
33.86700047,-112.2942838,56:57.9,8/16/2011,8,1.01,314.85,11.0838024,0,309.9,320.9838024,3.8,-1.2,38.7,0,5.81,5.81,81,26,370.5,14.2,-1.8,D,836.6,2,71.939,1,1,165,316.919,-112.294816,33.867473,0,0,1,N,123,123,5,130,130,316.919,0
33.86700381,-112.2942871,56:58.9,8/16/2011,8,0.99,315.99,11.0838024,0,309.1,320.1838024,4,-0.9,38.7,0,5.81,5.81,81,26,370.5,14.2,-1.8,D,838,2,71.458,1,1,165,316.8955,-112.294816,33.867473,0,0,1,N,124,124,5,135,135,316.8955,0
33.86700718,-112.2942922,56:59.9,8/16/2011,8,0.99,315.21,11.0838024,0,309.4,320.4838024,3.7,-0.4,38.7,0,5.63,5.63,81,26,370.5,14.2,-1.8,D,838,2,70.867,1,1,165,316.9624,-112.294816,33.867473,0,0,1,N,123,123,5,137,137,316.968,0
33.86700905,-112.294294,57:00.9,8/16/2011,8,0.99,314.37,11.0838024,0,309.3,320.3838024,4,0,38.7,0,5.6,5.6,81,26,370.4,14.2,-1.8,D,837.9,2,70.597,1,1,165,316.9503,-112.294816,33.867473,0,0,1,N,124,124,5,137,137,316.9425,0
33.86701219,-112.2942988,57:01.9,8/16/2011,8,1.04,311.35,11.0838024,0,310.3,321.3838024,3.6,-0.5,38.7,0,5.6,5.6,81,26,370.4,14.2,-1.8,D,837.9,2,70.041,1,1,165,317.018,-112.294816,33.867473,0,0,1,N,122,122,5,134,134,317.0246,0
33.86701622,-112.2943045,57:02.9,8/16/2011,8,1.04,311.08,11.0838024,0,310.3,321.3838024,3.5,-0.4,38.7,0,5.6,5.6,81,26,370.4,14.2,-1.8,D,840.6,2,69.358,1,1,165,317.0808,-112.294816,33.867473,0,0,1,N,122,122,5,136,136,317.0873,0
33.86702123,-112.2943094,57:03.9,8/16/2011,8,1.1,314,11.0838024,0,310.8,321.8838024,3.6,-0.2,38.6,0,5.54,5.54,81,26,370.4,14.2,-1.8,D,840.6,2,68.637,1,1,165,317.0452,-112.294816,33.867473,0,0,1,N,122,122,5,134,134,317.0452,0
33.86702459,-112.2943127,57:04.9,8/16/2011,8,1.1,315.19,11.0838024,0,311.1,322.1838024,3.5,-0.6,38.6,0,5.57,5.57,81,26,370.4,14.2,-1.8,D,840.6,2,68.156,1,1,165,317.0189,-112.294816,33.867473,0,0,1,N,122,122,5,132,132,317.0189,0
33.86702573,-112.2943157,57:05.9,8/16/2011,8,1.08,315.23,11.0838024,0,310.9,321.9838024,3.4,-1.9,38.7,0,5.54,5.54,81,26,370.4,14.2,-1.8,D,840.6,2,67.878,1,1,165,317.114,-112.294816,33.867473,0,0,1,N,122,122,5,134,134,317.114,0
33.8670313,-112.2943228,57:07.0,8/16/2011,8,1.1,315.33,11.0838024,0,310.2,321.2838024,3.5,-1.9,38.6,0,5.26,5.26,81,26,370.4,14.2,-1.8,D,840.6,2,66.979,1,1,165,317.1622,-112.294816,33.867473,0,0,1,N,123,123,5,140,140,317.1699,0
33.86703406,-112.294324,57:07.9,8/16/2011,8,1.06,318.83,11.0838024,0,310.4,321.4838024,3.5,-0.8,38.6,0,5.26,5.26,81,26,370.4,14.2,-1.8,D,840.6,2,66.675,1,1,165,317.057,-112.294816,33.867473,0,0,1,N,122,122,5,143,143,317.057,0
33.8670374,-112.2943274,57:09.0,8/16/2011,8,1.05,321.32,11.0838024,0,310.5,321.5838024,3.7,-1,38.6,0,5.17,5.17,81,26,370.4,14.2,-1.8,D,840.6,2,66.194,1,1,165,317.0326,-112.294816,33.867473,0,0,1,N,123,123,5,142,142,317.0326,0
33.86704074,-112.2943323,57:10.0,8/16/2011,8,1,315.94,11.0838024,0,312,323.0838024,3.6,0.3,38.7,0,5.14,5.14,81,26,370.4,14.2,-1.8,D,840.6,2,65.609,1,1,165,317.1056,-112.294816,33.867473,0,0,1,N,122,122,5,132,132,317.0023,0
33.86704407,-112.2943357,57:11.0,8/16/2011,8,0.98,317.83,11.0838024,0,311,322.0838024,3.8,-1.2,38.7,0,5.14,5.14,81,26,370.4,14.2,-1.8,D,840.6,2,65.127,1,1,165,317.0836,-112.294816,33.867473,0,0,1,N,123,123,5,142,142,317.0836,0
33.86704741,-112.294339,57:12.0,8/16/2011,8,1.01,315.45,11.0838024,0,311.8,322.8838024,3.8,-1,38.7,0,5.05,5.05,81,26,370.4,14.2,-1.8,D,842.3,2,64.647,1,1,165,317.0578,-112.294816,33.867473,0,0,1,N,123,123,5,134,134,317.0466,0
33.86705073,-112.294344,57:13.0,8/16/2011,8,0.98,317.3,11.0838024,0,311.4,322.4838024,3.5,-0.5,38.6,0,5.02,5.02,81,26,370.4,14.2,-1.8,D,842.3,2,64.061,1,1,165,317.1355,-112.294816,33.867473,0,0,1,N,122,122,5,140,140,317.1355,0
33.86705411,-112.2943474,57:14.0,8/16/2011,8,1.05,313.13,11.0838024,0,311.5,322.5838024,3.2,-0.1,38.6,0,5.02,5.02,81,26,370.4,14.2,-1.8,D,840.9,2,63.574,1,1,165,317.1109,-112.294816,33.867473,0,0,1,N,121,121,5,143,143,317.0959,0
33.86705965,-112.2943543,57:15.0,8/16/2011,8,1.04,313.23,11.0838024,0,311.9,322.9838024,3.3,-0.6,38.6,0,4.93,4.93,81,26,370.4,14.2,-1.8,D,840.9,2,62.687,1,1,165,317.1564,-112.294816,33.867473,0,0,1,N,121,121,5,143,143,317.1661,0
33.86706078,-112.2943557,57:16.0,8/16/2011,8,1.08,313.71,11.0838024,0,312.3,323.3838024,3.7,-0.6,38.6,0,4.93,4.93,81,26,370.3,14.2,-1.8,D,839.5,2,62.508,1,1,165,317.1638,-112.294816,33.867473,0,0,1,N,123,123,5,140,140,317.1137,0
33.86706634,-112.2943626,57:17.0,8/16/2011,8,1.1,315.76,11.0838024,0,313.1,324.1838024,4,-0.8,38.6,0,4.93,4.93,81,26,370.3,14.2,-1.8,D,839.5,2,61.621,1,1,165,317.2079,-112.294816,33.867473,0,0,1,N,124,124,5,138,138,317.2197,0
33.86706969,-112.2943676,57:17.0,8/16/2011,8,1.09,315.77,11.0838024,0,314,325.0838024,3.9,-0.4,38.6,0,4.9,4.9,81,26,370.3,14.2,-1.8,D,838.6,2,61.036,1,1,165,317.2863,-112.294816,33.867473,0,0,1,N,124,124,5,136,136,317.2863,0
33.86708667,-112.2943833,57:22.8,8/16/2011,8,1,321.29,11.0838024,0,313.7,324.7838024,3.6,-2.1,38.6,0,4.81,4.81,81,26,370.3,14.2,-1.8,D,831.3,2,61.036,1,1,165,317.2863,-112.294816,33.867473,0,0,1,N,124,124,5,136,136,317.2863,0
33.86709153,-112.2943879,57:23.8,8/16/2011,8,1.02,318.75,11.0838024,0,314,325.0838024,3.9,-1.3,38.6,0,4.75,4.75,80,26,370.3,14.2,-1.8,D,836.2,2,57.977,1,1,165,317.0232,-112.294816,33.867473,0,0,1,N,124,124,5,128,128,317.0232,0
33.86709487,-112.2943929,57:24.8,8/16/2011,8,1.01,321.51,11.0838024,0,315.3,326.3838024,3.5,-0.5,38.6,0,4.81,4.81,80,26,370.3,14.2,-1.8,D,836.2,2,57.392,1,1,165,317.1061,-112.294816,33.867473,0,0,1,N,122,122,5,130,130,317.1061,0
33.86709667,-112.294395,57:25.8,8/16/2011,8,1.05,317.9,11.0838024,0,314.7,325.7838024,3.5,0.2,38.6,0,4.75,4.75,80,26,370.3,14.2,-1.8,D,835.2,2,56.883,1,1,165,317.0316,-112.294816,33.867473,0,0,1,N,121,121,5,134,134,317.0316,0
33.86710153,-112.2943996,57:26.8,8/16/2011,8,1.05,318.32,11.0838024,0,314.7,325.7838024,3.6,0.9,38.7,0,4.72,4.72,80,26,370.3,14.2,-1.8,D,835.2,2,56.43,1,1,165,317.0536,-112.294816,33.867473,0,0,1,N,122,122,5,134,134,317.0536,0
33.86710652,-112.2944046,57:27.8,8/16/2011,8,1.08,317.33,11.0838024,0,314.7,325.7838024,3.5,0.7,38.6,0,4.69,4.69,80,26,370.3,14.2,-1.8,D,835.2,2,55.708,1,1,165,317.0139,-112.294816,33.867473,0,0,1,N,122,122,5,134,134,317.0139,0
33.86710833,-112.2944067,57:28.8,8/16/2011,8,1.07,317.28,11.0838024,0,315.4,326.4838024,3.5,-0.4,38.7,0,4.69,4.69,80,26,370.2,14.2,-1.8,D,833.8,2,55.194,1,1,165,316.9346,-112.294816,33.867473,0,0,1,N,121,121,5,133,133,316.9346,0
33.86714276,-112.2944396,57:33.9,8/16/2011,8,1,321.62,11.0838024,0,315.1,326.1838024,3.8,-1.9,38.6,0,4.5,4.5,80,26,370.2,14.2,-1.8,D,833.8,2,50.559,1,1,165,316.5769,-112.294816,33.867473,0,0,1,N,123,123,5,134,134,317.0732,0
33.86713235,-112.2944318,57:34.9,8/16/2011,8,0.99,321.4,11.0838024,0,316.6,327.6838024,3.6,-2,38.6,0,4.47,4.47,80,26,370.2,14.2,-1.8,D,833.7,2,51.896,1,1,165,316.8781,-112.294816,33.867473,0,0,1,N,122,122,5,116,116,316.8996,0
33.86713577,-112.294434,57:35.9,8/16/2011,8,1.01,321.3,11.0838024,0,315.1,326.1838024,3.6,-1.1,38.6,0,4.47,4.47,80,26,370.2,14.2,-1.8,D,833.7,2,51.482,1,1,165,316.7508,-112.294816,33.867473,0,0,1,N,122,122,5,134,134,316.8002,0
33.8671391,-112.2944373,57:36.9,8/16/2011,8,1,323.65,11.0838024,0,315.2,326.2838024,4,-0.7,38.7,0,4.41,4.41,80,26,370.2,14.2,-1.8,D,832.3,2,51.001,1,1,165,316.7172,-112.294816,33.867473,0,0,1,N,124,124,5,129,129,316.6731,0
33.86714244,-112.2944406,57:37.9,8/16/2011,8,1.05,317.48,11.0838024,0,315.9,326.9838024,3.8,-0.6,38.6,0,4.44,4.44,80,26,370.2,14.2,-1.8,D,832.3,2,50.521,1,1,165,316.6817,-112.294816,33.867473,0,0,1,N,123,123,5,130,130,316.6425,0
33.86714577,-112.2944456,57:38.9,8/16/2011,8,1.05,317.63,11.0838024,0,314.9,325.9838024,3.8,-1.4,38.6,0,4.32,4.32,80,26,370.2,14.2,-1.8,D,832.3,2,49.934,1,1,165,316.7772,-112.294816,33.867473,0,0,1,N,123,123,5,134,134,316.6044,0
33.8671499,-112.2944496,57:39.9,8/16/2011,8,1.11,316.88,11.0838024,0,315.1,326.1838024,3.6,0.2,38.6,0,4.32,4.32,80,26,370.2,14.2,-1.8,D,832.3,2,49.346,1,1,165,316.724,-112.294816,33.867473,0,0,1,N,122,122,5,135,135,316.724,0
33.86715333,-112.2944533,57:40.9,8/16/2011,8,1.08,318.19,11.0838024,0,314.9,325.9838024,3.7,0,38.7,0,4.26,4.26,80,26,370.2,14.2,-1.8,D,833.7,2,48.838,1,1,165,316.6258,-112.294816,33.867473,0,0,1,N,123,123,5,136,136,316.6258,0
33.86715898,-112.2944585,57:41.9,8/16/2011,8,1.12,316.98,11.0838024,0,315.6,326.6838024,3.4,-0.9,38.6,0,3.65,3.65,80,26,370.2,14.2,-1.8,D,833.7,2,48.048,1,1,165,316.6134,-112.294816,33.867473,0,0,1,N,122,122,5,131,131,316.6134,0
33.86716477,-112.2944641,57:42.9,8/16/2011,8,1.09,316.65,11.0838024,0,315.6,326.6838024,3.4,-1.2,38.6,0,3.59,3.59,80,26,370.2,14.2,-1.8,D,833.7,2,47.226,1,1,165,316.5304,-112.294816,33.867473,0,0,1,N,122,122,5,131,131,316.5527,0
33.86716811,-112.2944674,57:43.9,8/16/2011,8,1.06,321.32,11.0838024,0,316.3,327.3838024,3.7,-1.9,38.7,0,3.65,3.65,80,26,370.2,14.2,-1.8,D,837.3,2,46.746,1,1,165,316.4883,-112.294816,33.867473,0,0,1,N,123,123,5,126,126,316.5123,0
33.86717148,-112.2944708,57:44.9,8/16/2011,8,1.04,322.65,11.0838024,0,315.5,326.5838024,3.8,-1.8,38.6,0,4.08,4.08,80,26,370.2,14.2,-1.8,D,837.3,2,46.26,1,1,165,316.4497,-112.294816,33.867473,0,0,1,N,123,123,5,131,131,316.4734,0
33.86717487,-112.2944746,57:45.9,8/16/2011,8,1.02,322.88,11.0838024,0,314.5,325.5838024,3.5,-2.8,38.6,0,4.11,4.11,80,26,370.1,14.2,-1.8,D,836.7,2,45.746,1,1,165,316.4413,-112.294816,33.867473,0,0,1,N,123,123,5,135,135,316.462,0
33.86717974,-112.2944792,57:46.9,8/16/2011,8,1,321.83,11.0838024,0,314.6,325.6838024,3.7,-1.1,38.6,0,4.11,4.11,80,26,370.1,14.2,-1.8,D,836.7,2,45.062,1,1,165,316.3564,-112.294816,33.867473,0,0,1,N,123,123,5,136,136,316.3779,0
33.86718307,-112.2944825,57:47.9,8/16/2011,8,1.01,323.13,11.0838024,0,315.2,326.2838024,3.7,-0.8,38.7,0,4.08,4.08,80,26,370.1,14.2,-1.8,D,837.6,2,44.582,1,1,165,316.3141,-112.294816,33.867473,0,0,1,N,123,123,5,132,132,316.3373,0
33.86718641,-112.2944858,57:48.9,8/16/2011,8,1,321.23,11.0838024,0,315.1,326.1838024,3.7,-1,38.6,0,4.08,4.08,80,26,370.1,14.2,-1.8,D,837.6,2,44.101,1,1,165,316.2707,-112.294816,33.867473,0,0,1,N,123,123,5,134,134,316.2939,0
33.86718745,-112.2944873,57:49.9,8/16/2011,8,1.05,317.75,11.0838024,0,315.9,326.9838024,3.5,-2.6,38.7,0,4.08,4.08,80,26,370.1,14.2,-1.8,D,837.6,2,43.925,1,1,165,316.2927,-112.294816,33.867473,0,0,1,N,122,122,5,127,127,316.2927,0
33.86719321,-112.2944929,57:50.9,8/16/2011,8,1.04,317.32,11.0838024,0,315.6,326.6838024,3.7,-1.2,38.6,0,4.05,4.05,80,26,370.1,14.2,-1.8,D,837.6,2,43.103,1,1,165,316.2016,-112.294816,33.867473,0,0,1,N,123,123,5,129,129,316.2267,0
33.8671981,-112.2944974,57:51.9,8/16/2011,8,1.07,318.81,11.0838024,0,315.5,326.5838024,3.6,-0.8,38.6,0,4.02,4.02,80,26,370.1,14.2,-1.8,D,837.6,2,42.42,1,1,165,316.1042,-112.294816,33.867473,0,0,1,N,122,122,5,129,129,316.1298,0
33.8672014,-112.2945008,57:52.9,8/16/2011,8,1.08,319.43,11.0838024,0,314.6,325.6838024,3.5,-1.7,38.6,0,3.96,3.96,80,26,370.1,14.2,-1.8,D,837.6,2,41.939,1,1,165,316.0647,-112.294816,33.867473,0,0,1,N,122,122,5,135,135,316.0884,0
33.8672064,-112.2945058,57:53.9,8/16/2011,8,1.08,318.96,11.0838024,0,314.5,325.5838024,3.4,-0.1,38.6,0,3.92,3.92,80,26,370.1,14.2,-1.8,D,837.5,2,41.218,1,1,165,315.9903,-112.294816,33.867473,0,0,1,N,122,122,5,132,132,316.0143,0
33.8672097,-112.2945092,57:54.9,8/16/2011,8,1.11,319.4,11.0838024,0,313.8,324.8838024,3.5,-0.5,38.6,0,3.92,3.93,80,26,370.1,14.2,-1.8,D,837.5,2,40.736,1,1,165,315.9484,-112.294816,33.867473,0,0,1,N,122,122,5,139,139,315.9711,0
33.86721242,-112.2945106,57:55.9,8/16/2011,8,1.06,323.7,11.0838024,0,313.2,324.2838024,3.8,-1.1,38.6,0,3.9,3.9,80,26,370.1,14.2,-1.8,D,837.5,2,40.428,1,1,165,315.7832,-112.294816,33.867473,0,0,1,N,123,123,5,138,138,315.7832,0
33.8672228,-112.2945222,57:57.3,8/16/2011,8,1.01,321.17,11.0838024,0,313.1,324.1838024,3.4,-0.3,38.6,0,3.83,3.83,80,26,370,14.2,-1.8,D,834.2,2,38.856,1,1,165,315.7242,-112.294816,33.867473,0,0,1,N,122,122,5,141,141,315.7402,0
33.86722242,-112.2945223,57:58.3,8/16/2011,8,1.02,319.65,11.0838024,0,312.9,323.9838024,3.4,-0.6,38.6,0,3.83,3.84,80,26,370,14.2,-1.8,D,834.2,2,38.879,1,1,165,315.7801,-112.294816,33.867473,0,0,1,N,122,122,5,141,141,315.6332,0
33.86722625,-112.2945255,57:59.4,8/16/2011,8,1.02,319.65,11.0838024,0,314.1,325.1838024,3.4,-1,38.6,0,3.8,3.8,80,26,370,14.2,-1.8,D,834.2,2,38.366,1,1,165,315.6554,-112.294816,33.867473,0,0,1,N,122,122,5,134,134,315.6823,0
33.86722894,-112.2945269,58:00.4,8/16/2011,8,0.99,320.33,11.0838024,0,313.9,324.9838024,3.7,-0.6,38.6,0,3.8,3.81,80,26,370,14.2,-1.8,D,834.2,2,38.064,1,1,165,315.4772,-112.294816,33.867473,0,0,1,N,123,123,5,134,134,315.5031,0
33.86723228,-112.2945302,58:01.4,8/16/2011,8,1.01,318.97,11.0838024,0,314.4,325.4838024,3.9,0,38.6,0,3.77,3.77,80,26,370,14.2,-1.8,D,835.6,2,37.584,1,1,165,315.4125,-112.294816,33.867473,0,0,1,N,124,124,5,130,130,315.4402,0
33.86723562,-112.2945352,58:02.4,8/16/2011,8,1.05,316.05,11.0838024,0,314.6,325.6838024,3.5,-0.8,38.6,0,3.77,3.77,80,26,370,14.2,-1.8,D,835.6,2,36.996,1,1,165,315.5171,-112.294816,33.867473,0,0,1,N,122,122,5,130,130,315.5456,0
33.86724075,-112.2945423,58:03.4,8/16/2011,8,1.09,316.37,11.0838024,0,313.2,324.2838024,3.3,-0.1,38.6,0,3.68,3.68,80,26,370,14.2,-1.8,D,834.6,2,36.131,1,1,165,315.6234,-112.294816,33.867473,0,0,1,N,121,121,5,139,139,315.4838,0
33.86724409,-112.2945456,58:04.4,8/16/2011,8,1.07,317.12,11.0838024,0,313.5,324.5838024,3.2,-0.8,38.5,0,3.65,3.65,80,26,370,14.2,-1.8,D,835.9,2,35.651,1,1,165,315.5594,-112.294816,33.867473,0,0,1,N,121,121,5,137,137,315.5129,0
33.86724787,-112.2945489,58:05.4,8/16/2011,8,1.07,317.12,11.0838024,0,313.1,324.1838024,3,-1.3,38.5,0,3.65,3.65,80,26,370,14.2,-1.8,D,835.9,2,35.143,1,1,165,315.4251,-112.294816,33.867473,0,0,1,N,120,120,5,139,139,315.4509,0
33.86725242,-112.294554,58:06.4,8/16/2011,8,1.08,315.43,11.0838024,0,313.7,324.7838024,3.2,-1.2,38.6,0,3.65,3.65,80,26,370,14.2,-1.8,D,835.9,2,34.451,1,1,165,315.3935,-112.294816,33.867473,0,0,1,N,122,122,5,132,132,315.4265,0
