Latitude;Longitude;Time;Date;Number of Sats;GPS Speed (Kn);GPS True Heading;GPS Magnetic Variation;HDOP;C Magnetic Heading;C True Heading;Pitch Angle;Roll Angle;C Inside Temp (c);DFS Depth (m);DTB Height (m);Total Water Column (m);Batt Percent;Power Watts;Watt-Hours;Batt Volts;Batt Ampers;Batt State;Time to Empty;Current Step;Dist To Next (m);Next Speed (kn);Vehicle Speed (kn);Motor Speed CMD;Next Heading;Next Long;Next Lat;Next Depth (m);Depth Goal (m);Vehicle State;Error State;Fin Pitch R;Fin Pitch L;Pitch Goal;Fin Yaw T;Fin Yaw B;Yaw Goal;Fin Roll;
33.8662683333333;-112.294293333333;15:53:36.13;8/16/2011;8;0.38;301.32;11.0838024042108;0;286.1;297.183802404211;4.8;-3.1;38.5;.01;2.25;2.26;81;20;372.0;14.2;-1.4;D;1077;0;3.177;1;0;128;157.1969;-112.29428;33.866242;0;0;1;N;127;127;5;5;5;157.1969;0;
33.8662708191135;-112.294296992517;15:53:37.13;8/16/2011;8;0.36;300.92;11.0838024042108;0;284.8;295.883802404211;4.9;-3.2;38.6;.02;2.34;2.36;81;20;372.0;14.2;-1.4;D;1077;0;3.569;1;1;128;153.914;-112.29428;33.866242;0;0;1;N;128;128;5;5;5;156.0193;0;
33.8662714123153;-112.294300158109;15:53:38.13;8/16/2011;8;0.39;292.25;11.0838024042108;0;285;296.083802404211;5.5;0.5;38.6;.03;2.40;2.43;81;20;372.0;14.2;-1.4;D;1085.2;1;66.075;1;1;165;21.57529;-112.294037;33.866824;0;0;1;N;131;131;5;250;250;21.57529;0;
33.866273269105;-112.294303998781;15:53:39.14;8/16/2011;8;0.39;296.56;11.0838024042108;0;285.1;296.183802404211;4.8;-0.5;38.6;.02;2.43;2.45;81;20;372.0;14.2;-1.4;D;1085.2;1;66.015;1;1;165;21.9274;-112.294037;33.866824;0;0;1;N;127;127;5;250;250;21.9274;0;
33.8662733907661;-112.294305718528;15:53:40.15;8/16/2011;8;0.51;284.96;11.0838024042108;0;286.8;297.883802404211;4.8;0.6;38.6;.02;2.43;2.45;81;24;372.0;14.2;-1.7;D;896.8;1;66.061;1;1;165;22.05953;-112.294037;33.866824;0;0;1;N;127;127;5;250;250;22.05953;0;
33.8662738047274;-112.294305959946;15:53:41.15;8/16/2011;8;0.65;283.13;11.0838024042108;0;289.8;300.883802404211;4.6;0.4;38.7;.01;2.49;2.50;81;24;372.0;14.2;-1.7;D;896.8;1;66.027;1;1;165;22.09246;-112.294037;33.866824;0;0;1;N;126;126;5;250;250;22.09246;0;
33.8662738408162;-112.294309260025;15:53:42.16;8/16/2011;8;0.76;283.94;11.0838024042108;0;293.3;304.383802404211;4.5;0.2;38.7;.01;2.55;2.56;81;25;371.9;14.2;-1.8;D;860.4;1;66.139;1;1;165;22.33834;-112.294037;33.866824;0;0;1;N;126;126;5;250;250;22.33834;0;
33.8662771915935;-112.294316918502;15:53:43.16;8/16/2011;8;0.8;286.72;11.0838024042108;0;297.3;308.383802404211;4.5;-0.1;38.6;.01;2.55;2.56;81;25;371.9;14.2;-1.8;D;860.4;1;66.068;1;1;165;23.02838;-112.294037;33.866824;0;0;1;N;126;126;5;250;250;23.02838;0;
33.8662790895139;-112.294320024459;15:53:44.16;8/16/2011;8;0.78;294.68;11.0838024042108;0;301.9;312.983802404211;4.4;0;38.6;.00;2.61;2.62;81;25;371.9;14.2;-1.8;D;860.4;1;65.986;1;1;165;23.32922;-112.294037;33.866824;0;0;1;N;126;126;5;250;250;23.32922;0;
33.8662790118446;-112.294322420282;15:53:45.16;8/16/2011;8;0.8;296.7;11.0838024042108;0;306.1;317.183802404211;4.3;0.1;38.7;.00;2.77;2.77;81;25;371.9;14.2;-1.8;D;851.4;1;66.082;1;1;165;23.50237;-112.294037;33.866824;0;0;1;N;125;125;5;250;250;23.50237;0;
33.8662807196989;-112.294325696549;15:53:46.16;8/16/2011;8;0.86;306.57;11.0838024042108;0;310.7;321.783802404211;4.3;0.2;38.7;.00;2.80;2.80;81;25;371.9;14.2;-1.8;D;851.4;1;66.030;1;1;165;23.80879;-112.294037;33.866824;0;0;1;N;125;125;5;250;250;23.80879;0;
33.86628636694;-112.294330975651;15:53:47.16;8/16/2011;8;0.85;311.55;11.0838024042108;0;315;326.083802404211;4.4;-0.4;38.7;.00;2.89;2.89;81;25;371.9;14.2;-1.8;D;852.3;1;65.656;1;1;165;24.41918;-112.294037;33.866824;0;0;1;N;126;126;5;250;250;24.41918;0;
33.8662865975664;-112.294332795504;15:53:48.16;8/16/2011;8;0.88;315.95;11.0838024042108;0;319.5;330.583802404211;4.3;0;38.7;.00;3.04;3.04;81;25;371.9;14.2;-1.8;D;852.3;1;65.702;1;1;165;24.56184;-112.294037;33.866824;0;0;1;N;125;125;5;250;250;24.56184;0;
33.8662891674017;-112.294335479393;15:53:49.16;8/16/2011;8;0.89;320.32;11.0838024042108;0;323.8;334.883802404211;4.3;-0.2;38.7;.00;3.13;3.13;81;25;371.9;14.2;-1.8;D;849.5;1;65.546;1;1;165;24.86268;-112.294037;33.866824;0;0;1;N;125;125;5;250;250;24.86268;0;
33.8662933961044;-112.294339136011;15:53:50.17;8/16/2011;8;0.89;320.22;11.0838024042108;0;328.8;339.883802404211;4.3;-0.1;38.7;.00;3.16;3.16;81;25;371.9;14.2;-1.8;D;849.5;1;65.263;1;1;165;25.30518;-112.294037;33.866824;0;0;1;N;125;125;5;250;250;25.30518;0;
33.8662984317828;-112.29434233042;15:53:51.17;8/16/2011;8;0.92;325.6;11.0838024042108;0;332.4;343.483802404211;4.3;-0.2;38.7;.00;3.25;3.25;81;25;371.9;14.2;-1.8;D;848.5;1;64.885;1;1;165;25.75198;-112.294037;33.866824;0;0;1;N;125;125;5;250;250;25.75198;0;
33.8663018098079;-112.294345485569;15:53:52.17;8/16/2011;8;0.84;325.53;11.0838024042108;0;337.2;348.283802404211;4.3;-0.2;38.7;.00;3.34;3.34;81;25;371.9;14.2;-1.8;D;848.5;1;64.675;1;1;165;26.12901;-112.294037;33.866824;0;0;1;N;125;125;5;250;250;26.12901;0;
33.8663051697775;-112.294346976724;15:53:53.18;8/16/2011;8;0.83;329.56;11.0838024042108;0;342.4;353.483802404211;4.3;-0.3;38.7;.00;3.41;3.41;81;25;371.9;14.2;-1.8;D;848;1;64.401;1;1;165;26.38536;-112.294037;33.866824;0;0;1;N;125;125;5;250;250;26.38536;0;
33.8663103627595;-112.294350291792;15:53:54.18;8/16/2011;8;0.83;334.5;11.0838024042108;0;347.6;358.683802404211;4.3;0;38.6;.00;3.47;3.47;81;25;371.9;14.2;-1.8;D;848;1;64.022;1;1;165;26.86042;-112.294037;33.866824;0;0;1;N;125;125;5;250;250;26.86042;0;
33.8663137041342;-112.294351648493;15:53:55.18;8/16/2011;8;0.82;339.63;11.0838024042108;0;351.6;2.68380240421078;4.3;-0.6;38.7;.00;3.53;3.53;81;26;371.9;14.2;-1.8;D;844.8;1;63.747;1;1;165;27.11174;-112.294037;33.866824;0;0;1;N;125;125;5;250;250;27.11174;0;
33.8663151710849;-112.294353081015;15:53:56.19;8/16/2011;8;0.84;348.96;11.0838024042108;0;356.3;7.38380240421077;4.3;-0.3;38.7;.00;3.62;3.62;81;26;371.9;14.2;-1.8;D;844.8;1;63.663;1;1;165;27.2846;-112.294037;33.866824;0;0;1;N;125;125;5;246;246;27.2846;0;
33.8663219830581;-112.294352576771;15:53:57.19;8/16/2011;8;0.83;353.83;11.0838024042108;0;1;12.0838024042108;4.3;-0.5;38.7;.00;3.65;3.65;81;26;371.8;14.2;-1.8;D;847;1;62.969;1;1;165;27.56289;-112.294037;33.866824;0;0;1;N;125;125;5;232;232;27.56289;0;
33.8663234516144;-112.294352750629;15:53:58.19;8/16/2011;8;0.94;358.55;11.0838024042108;0;5.5;16.5838024042108;4.3;-0.4;38.7;.00;3.68;3.68;81;26;371.8;14.2;-1.8;D;847;1;62.832;1;1;165;27.64478;-112.294037;33.866824;0;0;1;N;125;125;5;215;215;27.64478;0;
33.8663284288561;-112.294352639441;15:53:59.19;8/16/2011;8;0.95;3.61;11.0838024042108;0;7.8;18.8838024042108;4.2;-0.8;38.7;.00;3.71;3.71;81;26;371.8;14.2;-1.8;D;846.5;1;62.337;1;1;165;27.87244;-112.294037;33.866824;0;0;1;N;125;125;5;208;208;27.87244;0;
33.8663351772379;-112.294351748639;15:54:00.21;8/16/2011;8;0.96;7.12;11.0838024042108;0;11.5;22.5838024042108;4.1;-0.9;38.7;.00;3.71;3.71;81;26;371.8;14.2;-1.8;D;846.5;1;61.636;1;1;165;28.13097;-112.294037;33.866824;0;0;1;N;124;124;5;194;194;28.13097;0;
33.8663383416839;-112.294350711674;15:54:01.21;8/16/2011;8;0.98;11.08;11.0838024042108;0;15.6;26.6838024042108;4.1;-1.2;38.7;.00;3.71;3.71;81;26;371.8;14.2;-1.8;D;846.5;1;61.280;1;1;165;28.20714;-112.294037;33.866824;0;0;1;N;124;124;5;179;179;28.20714;0;
33.8663432514457;-112.294349536354;15:54:02.22;8/16/2011;8;0.96;10.64;11.0838024042108;0;19.1;30.1838024042108;3.9;-1.3;38.8;.00;3.71;3.71;81;26;371.8;14.2;-1.8;D;845.5;1;60.748;1;1;165;28.36033;-112.294037;33.866824;0;0;1;N;124;124;5;168;168;28.36033;0;
33.8663482276536;-112.29434759771;15:54:03.23;8/16/2011;8;0.96;14.67;11.0838024042108;0;21.9;32.9838024042108;3.8;-1.4;38.7;.00;3.74;3.74;81;26;371.8;14.2;-1.8;D;845.5;1;60.176;1;1;165;28.46062;-112.294037;33.866824;0;0;1;N;123;123;5;193;193;28.46062;0;
33.8663522331789;-112.294345225132;15:54:04.24;8/16/2011;8;0.83;22;11.0838024042108;0;23.9;34.9838024042108;3.8;-0.5;38.7;.00;3.74;3.74;81;26;371.8;14.2;-1.8;D;844.6;1;59.681;1;1;165;28.4795;-112.294037;33.866824;0;0;1;N;123;123;5;184;184;28.4795;0;
33.8663548071391;-112.294345323999;15:54:05.24;8/16/2011;8;0.84;25.6;11.0838024042108;0;26.5;37.5838024042108;3.8;-1.6;38.7;.00;3.77;3.77;81;26;371.8;14.2;-1.8;D;844.6;1;59.433;1;1;165;28.6188;-112.294037;33.866824;0;0;1;N;123;123;5;172;172;28.6188;0;
33.8663588079887;-112.294342872602;15:54:06.24;8/16/2011;8;0.84;28.25;11.0838024042108;0;29.5;40.5838024042108;3.8;-1.5;38.7;.00;3.80;3.80;81;26;371.8;14.2;-1.8;D;841.3;1;58.935;1;1;165;28.63281;-112.294037;33.866824;0;0;1;N;123;123;5;157;157;28.63281;0;
33.8663634440985;-112.294337953969;15:54:07.25;8/16/2011;8;0.84;31.14;11.0838024042108;0;32.2;43.2838024042108;3.8;-1.6;38.7;.00;4.02;4.02;81;26;371.8;14.2;-1.8;D;841.3;1;58.265;1;1;165;28.48376;-112.294037;33.866824;0;0;1;N;123;123;5;145;145;28.48376;0;
33.8663646618399;-112.294338446768;15:54:08.26;8/16/2011;8;0.9;38.34;11.0838024042108;0;33.5;44.5838024042108;3.8;-1.7;38.8;.00;4.08;4.08;81;26;371.7;14.2;-1.8;D;841.3;1;58.167;1;1;165;28.58677;-112.294037;33.866824;0;0;1;N;123;123;5;144;144;28.58677;0;
33.8663680100555;-112.294335060056;15:54:09.27;8/16/2011;8;0.91;41.98;11.0838024042108;0;34.2;45.2838024042108;3.7;-1.7;38.7;.00;3.99;3.99;81;26;371.7;14.2;-1.8;D;841.3;1;57.691;1;1;165;28.491;-112.294037;33.866824;0;0;1;N;123;123;5;152;152;28.491;0;
33.8663712942818;-112.294330072097;15:54:10.28;8/16/2011;8;1.01;39.91;11.0838024042108;0;34.9;45.9838024042108;3.7;-0.8;38.7;.00;3.83;3.83;81;26;371.7;14.2;-1.8;D;839.9;1;57.151;1;1;165;28.25985;-112.294037;33.866824;0;0;1;N;123;123;5;155;155;28.25985;0;
33.866374615958;-112.294326725284;15:54:11.28;8/16/2011;8;1.03;40.35;11.0838024042108;0;35.8;46.8838024042108;3.7;-1;38.7;.00;3.83;3.83;81;26;371.7;14.2;-1.8;D;839.9;1;56.679;1;1;165;28.1615;-112.294037;33.866824;0;0;1;N;123;123;5;162;162;28.1615;0;
33.8663816666667;-112.294321666667;15:54:12.28;8/16/2011;8;1.03;42.28;11.0838024042108;0;37.2;48.2838024042108;3.7;-0.8;38.7;.00;3.80;3.80;81;26;371.7;14.2;-1.8;D;839.9;1;56.046;1;1;165;28.14785;-112.294037;33.866824;0;0;1;N;123;123;5;157;157;28.14785;0;
33.8663847052297;-112.294317467083;15:54:13.28;8/16/2011;8;1.03;42.28;11.0838024042108;0;38.6;49.6838024042108;3.7;-1.6;38.7;.00;3.71;3.71;81;26;371.7;14.2;-1.8;D;842.1;1;55.287;1;1;165;27.92922;-112.294037;33.866824;0;0;1;N;123;123;5;153;153;27.92922;0;
33.8663861667268;-112.294314943587;15:54:14.28;8/16/2011;8;0.96;40.42;11.0838024042108;0;40.1;51.1838024042108;3.7;-0.8;38.7;.00;3.74;3.74;81;26;371.7;14.2;-1.8;D;842.1;1;55.035;1;1;165;27.79415;-112.294037;33.866824;0;0;1;N;123;123;5;146;146;27.79415;0;
33.8663894852321;-112.294311588955;15:54:15.28;8/16/2011;8;0.99;40.68;11.0838024042108;0;41;52.0838024042108;3.7;-1.4;38.7;.00;3.71;3.71;81;26;371.7;14.2;-1.8;D;842.1;1;54.564;1;1;165;27.68711;-112.294037;33.866824;0;0;1;N;123;123;5;149;149;27.68711;0;
33.866395;-112.294306666667;15:54:16.29;8/16/2011;8;0.88;49.9;11.0838024042108;0;42.3;53.3838024042108;3.6;-1.2;38.7;.00;3.62;3.62;81;26;371.7;14.2;-1.8;D;842.1;1;54.090;1;1;165;27.57467;-112.294037;33.866824;0;0;1;N;122;122;5;157;157;27.57467;0;
33.8663983333333;-112.294303333333;15:54:17.30;8/16/2011;8;0.88;49.68;11.0838024042108;0;43.3;54.3838024042108;3.6;-1;38.7;.00;3.59;3.59;81;26;371.7;14.2;-1.8;D;842.1;1;53.348;1;1;165;27.31996;-112.294037;33.866824;0;0;1;N;122;122;5;155;155;27.31996;0;
33.8664;-112.294298333333;15:54:18.30;8/16/2011;8;0.89;52.58;11.0838024042108;0;44.8;55.8838024042108;3.7;-0.9;38.7;.00;3.56;3.56;81;26;371.7;14.2;-1.8;D;842.1;1;52.884;1;1;165;27.19652;-112.294037;33.866824;0;0;1;N;123;123;5;143;143;27.19652;0;
33.8664033333333;-112.294295;15:54:19.30;8/16/2011;8;0.94;55.6;11.0838024042108;0;45.6;56.6838024042108;3.7;-1.6;38.7;.00;3.56;3.56;81;26;371.7;14.2;-1.8;D;843;1;52.510;1;1;165;26.82584;-112.294037;33.866824;0;0;1;N;123;123;5;129;129;26.82584;0;
33.8664059385689;-112.294290141173;15:54:20.30;8/16/2011;8;0.94;55.6;11.0838024042108;0;46.4;57.4838024042108;3.6;-1.9;38.7;.00;3.47;3.47;81;26;371.7;14.2;-1.8;D;843;1;52.031;1;1;165;26.69222;-112.294037;33.866824;0;0;1;N;122;122;5;117;117;26.69222;0;
33.8664083333333;-112.294285;15:54:21.30;8/16/2011;8;1.04;53.73;11.0838024042108;0;46.3;57.3838024042108;3.6;-1.9;38.7;.00;3.50;3.50;81;26;371.6;14.2;-1.8;D;842;1;51.854;1;1;165;26.4548;-112.294037;33.866824;0;0;1;N;122;122;5;115;115;26.4548;0;
33.8664116666667;-112.294281666667;15:54:22.30;8/16/2011;8;1.06;52.8;11.0838024042108;0;45.9;56.9838024042108;3.7;-1.2;38.7;.00;3.41;3.41;81;26;371.6;14.2;-1.8;D;842;1;51.141;1;1;165;26.05932;-112.294037;33.866824;0;0;1;N;123;123;5;115;115;26.05932;0;
33.8664142263282;-112.294277037139;15:54:23.30;8/16/2011;8;1.06;52.8;11.0838024042108;0;45;56.0838024042108;3.6;-1.1;38.7;.00;3.41;3.41;81;26;371.6;14.2;-1.8;D;841;1;50.669;1;1;165;25.93798;-112.294037;33.866824;0;0;1;N;122;122;5;125;125;25.93798;0;
33.8664160676954;-112.294274846588;15:54:24.30;8/16/2011;8;1.05;54.61;11.0838024042108;0;43.5;54.5838024042108;3.5;-1.6;38.6;.00;3.38;3.38;81;26;371.6;14.2;-1.8;D;841;1;50.397;1;1;165;25.83302;-112.294037;33.866824;0;0;1;N;122;122;5;135;135;25.83302;0;
33.8664177381419;-112.294269857025;15:54:25.31;8/16/2011;8;1.06;53.26;11.0838024042108;0;43.3;54.3838024042108;3.8;-0.7;38.6;.00;3.35;3.35;81;26;371.6;14.2;-1.8;D;836;1;50.030;1;1;165;25.45084;-112.294037;33.866824;0;0;1;N;123;123;5;134;134;25.45084;0;
33.8664216632008;-112.294263924086;15:54:26.31;8/16/2011;8;0.97;50.92;11.0838024042108;0;43;54.0838024042108;3.5;-1.4;38.6;.00;3.35;3.35;81;26;371.6;14.2;-1.8;D;836;1;49.401;1;1;165;25.0947;-112.294037;33.866824;0;0;1;N;122;122;5;134;134;25.15235;0;
33.8664249520789;-112.294260621187;15:54:27.31;8/16/2011;8;1;48.4;11.0838024042108;0;43.4;54.4838024042108;3.5;-1.1;38.6;.00;3.38;3.38;81;26;371.6;14.2;-1.8;D;836;1;48.941;1;1;165;24.95297;-112.294037;33.866824;0;0;1;N;122;122;5;130;130;24.95297;0;
33.8664282827189;-112.294255619026;15:54:28.31;8/16/2011;8;0.91;53.25;11.0838024042108;0;43.4;54.4838024042108;3.7;-1.5;38.7;.00;3.38;3.38;81;26;371.6;14.2;-1.8;D;836;1;48.411;1;1;165;24.6423;-112.294037;33.866824;0;0;1;N;123;123;5;128;128;24.70269;0;
33.8664299533953;-112.294252288977;15:54:29.31;8/16/2011;8;0.93;52.85;11.0838024042108;0;43.3;54.3838024042108;3.6;-1.5;38.7;.00;3.41;3.41;81;26;371.6;14.2;-1.8;D;836;1;48.114;1;1;165;24.40174;-112.294037;33.866824;0;0;1;N;122;122;5;127;127;24.40174;0;
33.8664332919292;-112.294247293611;15:54:30.32;8/16/2011;8;0.9;54.89;11.0838024042108;0;43.3;54.3838024042108;3.6;-1.4;38.6;.00;3.47;3.47;81;26;371.6;14.2;-1.8;D;836;1;47.586;1;1;165;24.08068;-112.294037;33.866824;0;0;1;N;122;122;5;126;126;24.08068;0;
33.8664349534002;-112.294243955652;15:54:31.32;8/16/2011;8;0.92;54.03;11.0838024042108;0;43.3;54.3838024042108;3.6;-1.1;38.7;.00;3.50;3.50;81;26;371.6;14.2;-1.8;D;836;1;47.292;1;1;165;23.83112;-112.294037;33.866824;0;0;1;N;122;122;5;123;123;23.83112;0;
33.866438285344;-112.294238961286;15:54:32.33;8/16/2011;8;1;56.31;11.0838024042108;0;43.2;54.2838024042108;3.6;-1.8;38.7;.00;3.53;3.53;81;26;371.5;14.2;-1.8;D;837.2;1;46.768;1;1;165;23.49775;-112.294037;33.866824;0;0;1;N;122;122;5;121;121;23.49775;0;
33.8664416410448;-112.294235640512;15:54:33.33;8/16/2011;8;0.99;56.13;11.0838024042108;0;42.4;53.4838024042108;3.6;-1.5;38.7;.00;3.59;3.59;81;26;371.5;14.2;-1.8;D;837.2;1;46.304;1;1;165;23.33391;-112.294037;33.866824;0;0;1;N;122;122;5;124;124;23.39791;0;
33.866445;-112.294228333333;15:54:34.33;8/16/2011;8;1.09;50.96;11.0838024042108;0;41.5;52.5838024042108;3.6;-1.4;38.7;.00;3.68;3.68;81;26;371.5;14.2;-1.8;D;837.2;1;45.941;1;1;165;22.8955;-112.294037;33.866824;0;0;1;N;122;122;5;126;126;22.8955;0;
33.8664478475839;-112.294223944655;15:54:35.33;8/16/2011;8;1.09;50.96;11.0838024042108;0;40.8;51.8838024042108;3.7;-1;38.7;.00;3.71;3.71;81;26;371.5;14.2;-1.8;D;837.2;1;45.248;1;1;165;22.42445;-112.294037;33.866824;0;0;1;N;122;122;5;125;125;22.42445;0;
33.8664500869787;-112.29422074499;15:54:36.34;8/16/2011;8;1.07;49.95;11.0838024042108;0;40.2;51.2838024042108;3.7;-1.2;38.7;.00;3.77;3.77;81;26;371.5;14.2;-1.8;D;837.2;1;44.906;1;1;165;22.19722;-112.294037;33.866824;0;0;1;N;123;123;5;128;128;22.19722;0;
33.8664534279827;-112.294215752179;15:54:37.36;8/16/2011;8;1.09;48.49;11.0838024042108;0;39.7;50.7838024042108;3.6;-1.8;38.6;.00;3.86;3.86;81;26;371.5;14.2;-1.8;D;837.2;1;44.388;1;1;165;21.82745;-112.294037;33.866824;0;0;1;N;122;122;5;130;130;21.82745;0;
33.8664567613489;-112.294212418735;15:54:38.37;8/16/2011;8;1.02;46.48;11.0838024042108;0;39.3;50.3838024042108;3.6;-1.2;38.7;.00;3.89;3.90;81;26;371.5;14.2;-1.8;D;837.2;1;43.930;1;1;165;21.63455;-112.294037;33.866824;0;0;1;N;122;122;5;129;129;21.63455;0;
33.86646226609;-112.294205813835;15:54:39.37;8/16/2011;8;0.93;51.28;11.0838024042108;0;38.8;49.8838024042108;3.5;-1.6;38.7;.00;3.93;3.93;81;26;371.5;14.2;-1.8;D;837.2;1;43.138;1;1;165;21.18137;-112.294037;33.866824;0;0;1;N;122;122;5;129;129;21.18137;0;
33.8664652678554;-112.2942015822;15:54:40.37;8/16/2011;8;0.93;51.28;11.0838024042108;0;38.4;49.4838024042108;3.6;-1.7;38.7;.00;3.96;3.96;81;26;371.5;14.2;-1.8;D;835.8;1;42.686;1;1;165;20.85425;-112.294037;33.866824;0;0;1;N;122;122;5;128;128;20.91986;0;
33.866466816557;-112.294199148283;15:54:41.37;8/16/2011;8;0.94;51.6;11.0838024042108;0;38;49.0838024042108;3.6;-0.9;38.6;.00;4.08;4.08;81;26;371.5;14.2;-1.8;D;835.7;1;42.445;1;1;165;20.65353;-112.294037;33.866824;0;0;1;N;122;122;5;128;128;20.65353;0;
33.8664702216068;-112.294195809354;15:54:42.37;8/16/2011;8;0.94;50.33;11.0838024042108;0;36.8;47.8838024042108;3.6;-1.1;38.6;.00;4.11;4.11;81;26;371.5;14.2;-1.8;D;835.7;1;41.982;1;1;165;20.4421;-112.294037;33.866824;0;0;1;N;122;122;5;135;135;20.50945;0;
33.866473540697;-112.294192535383;15:54:43.38;8/16/2011;8;0.96;48.37;11.0838024042108;0;36.3;47.3838024042108;3.6;-1.1;38.7;.00;4.20;4.20;81;26;371.5;14.2;-1.8;D;835.7;1;41.531;1;1;165;20.22916;-112.294037;33.866824;0;0;1;N;122;122;5;136;136;20.22916;0;
33.8664772990079;-112.294185848539;15:54:44.38;8/16/2011;8;0.95;49.14;11.0838024042108;0;36.1;47.1838024042108;3.6;-1.7;38.7;.00;4.29;4.29;81;26;371.5;14.2;-1.8;D;835.7;1;40.928;1;1;165;19.62045;-112.294037;33.866824;0;0;1;N;122;122;5;131;131;19.62045;0;
33.8664804469326;-112.294181772882;15:54:45.38;8/16/2011;8;0.95;49.14;11.0838024042108;0;36;47.0838024042108;3.6;-1.7;38.7;.00;4.41;4.41;81;26;371.4;14.2;-1.8;D;835.6;1;40.473;1;1;165;19.28506;-112.294037;33.866824;0;0;1;N;122;122;5;127;127;19.28506;0;
33.8664856311491;-112.294177513884;15:54:46.38;8/16/2011;8;1.08;42.84;11.0838024042108;0;36.2;47.2838024042108;3.6;-0.9;38.7;.00;4.50;4.50;81;26;371.4;14.2;-1.8;D;835.6;1;39.799;1;1;165;19.0248;-112.294037;33.866824;0;0;1;N;122;122;5;124;124;19.0248;0;
33.8664889927429;-112.294172477192;15:54:47.38;8/16/2011;8;1.06;43.36;11.0838024042108;0;36.2;47.2838024042108;3.6;-1.2;38.7;.00;4.59;4.59;81;26;371.4;14.2;-1.8;D;834.3;1;39.295;1;1;165;18.56144;-112.294037;33.866824;0;0;1;N;122;122;5;121;121;18.74405;0;
33.8664922966218;-112.294169179231;15:54:48.38;8/16/2011;8;1.05;42.95;11.0838024042108;0;36.3;47.3838024042108;3.6;-1.5;38.7;.00;4.63;4.63;81;26;371.4;14.2;-1.8;D;834.3;1;38.851;1;1;165;18.3082;-112.294037;33.866824;0;0;1;N;122;122;5;112;112;18.3082;0;
33.8664956397842;-112.294165864557;15:54:49.38;8/16/2011;8;1.01;42.72;11.0838024042108;0;35.2;46.2838024042108;3.6;-1.7;38.8;.00;4.75;4.75;81;26;371.4;14.2;-1.8;D;832.9;1;38.402;1;1;165;18.04892;-112.294037;33.866824;0;0;1;N;122;122;5;115;115;18.01756;0;
33.8664988802319;-112.294161894502;15:54:50.38;8/16/2011;8;1.01;42.72;11.0838024042108;0;33.6;44.6838024042108;3.6;-2;38.8;.00;4.87;4.87;81;26;371.4;14.2;-1.8;D;832.9;1;37.946;1;1;165;17.69126;-112.294037;33.866824;0;0;1;N;122;122;5;117;117;17.76235;0;
33.8665023327884;-112.294157562649;15:54:51.39;8/16/2011;8;0.93;47.38;11.0838024042108;0;32.5;43.5838024042108;3.6;-1.3;38.7;.00;4.99;4.99;81;26;371.4;14.2;-1.8;D;832;1;37.460;1;1;165;17.28688;-112.294037;33.866824;0;0;1;N;122;122;5;120;120;17.28688;0;
33.8665056782655;-112.294154244871;15:54:52.39;8/16/2011;8;0.93;43.99;11.0838024042108;0;31.8;42.8838024042108;3.7;-1;38.7;.00;5.08;5.08;81;26;371.4;14.2;-1.8;D;832;1;37.014;1;1;165;17.00524;-112.294037;33.866824;0;0;1;N;123;123;5;120;120;17.00864;0;
33.8665091524211;-112.294150478144;15:54:53.39;8/16/2011;8;0.93;43.99;11.0838024042108;0;30.6;41.6838024042108;3.7;-0.9;38.7;.00;5.23;5.23;81;26;371.4;14.2;-1.8;D;830.6;1;36.544;1;1;165;16.66094;-112.294037;33.866824;0;0;1;N;122;122;5;120;120;16.66094;0;
33.8665104501825;-112.294149503121;15:54:54.40;8/16/2011;8;0.94;42.1;11.0838024042108;0;29;40.0838024042108;3.6;-1.5;38.7;.00;5.32;5.32;81;26;371.4;14.2;-1.8;D;830.6;1;36.380;1;1;165;16.59027;-112.294037;33.866824;0;0;1;N;122;122;5;129;129;16.6553;0;
33.8665138116227;-112.294146209968;15:54:55.40;8/16/2011;8;0.92;41.29;11.0838024042108;0;28.1;39.1838024042108;3.7;-1;38.6;.00;5.48;5.48;81;26;371.4;14.2;-1.8;D;830.5;1;35.935;1;1;165;16.29582;-112.294037;33.866824;0;0;1;N;123;123;5;130;130;16.35934;0;
33.8665179226805;-112.294140510031;15:54:56.40;8/16/2011;8;0.99;42.59;11.0838024042108;0;27.5;38.5838024042108;3.7;-1.5;38.7;.00;5.66;5.66;81;26;371.4;14.2;-1.8;D;830.5;1;35.351;1;1;165;15.685;-112.294037;33.866824;0;0;1;N;123;123;5;120;120;15.74928;0;
33.8665205039818;-112.294137914051;15:54:57.40;8/16/2011;8;0.99;40.29;11.0838024042108;0;27.7;38.7838024042108;3.5;-1.5;38.7;.00;5.75;5.75;81;26;371.4;14.2;-1.8;D;830.5;1;35.010;1;1;165;15.43434;-112.294037;33.866824;0;0;1;N;122;122;5;115;115;15.5008;0;
33.8665255257602;-112.294134614495;15:54:58.41;8/16/2011;8;1.08;36.37;11.0838024042108;0;26.9;37.9838024042108;3.7;-1.6;38.7;.00;5.96;5.96;81;26;371.4;14.2;-1.8;D;830.5;1;34.391;1;1;165;15.19269;-112.294037;33.866824;0;0;1;N;123;123;5;115;115;15.25846;0;
33.8665288982432;-112.294131259384;15:54:59.41;8/16/2011;8;1.09;36.02;11.0838024042108;0;26.4;37.4838024042108;3.6;-1.6;38.7;.00;6.02;6.03;81;26;371.4;14.2;-1.8;D;830.5;1;33.949;1;1;165;14.854;-112.294037;33.866824;0;0;1;N;122;122;5;109;109;14.92019;0;
33.8665338968915;-112.294128005993;15:55:00.43;8/16/2011;8;1.08;35.4;11.0838024042108;0;25.7;36.7838024042108;3.5;-1.3;38.7;.00;6.06;6.06;81;26;371.4;14.2;-1.8;D;831;1;33.335;1;1;165;14.59986;-112.294037;33.866824;0;0;1;N;122;122;5;111;111;14.59986;0;
33.8665372764987;-112.294124749818;15:55:01.44;8/16/2011;8;1.09;36.25;11.0838024042108;0;23.5;34.5838024042108;3.5;-1.7;38.7;.00;6.06;6.06;81;26;371.4;14.2;-1.8;D;831;1;32.896;1;1;165;14.25812;-112.294037;33.866824;0;0;1;N;122;122;5;118;118;14.25812;0;
33.8665423138383;-112.294121482344;15:55:02.44;8/16/2011;8;1.05;33.48;11.0838024042108;0;22.1;33.1838024042108;3.7;-1.6;38.7;.00;6.06;6.06;81;26;371.3;14.2;-1.8;D;830.9;1;32.279;1;1;165;13.98399;-112.294037;33.866824;0;0;1;N;123;123;5;122;122;13.98399;0;
33.8665491142566;-112.294116070652;15:55:03.44;8/16/2011;8;0.95;34.18;11.0838024042108;0;21.4;32.4838024042108;3.6;-0.9;38.7;.00;5.96;5.96;81;26;371.3;14.2;-1.8;D;830.9;1;31.426;1;1;165;13.43316;-112.294037;33.866824;0;0;1;N;122;122;5;121;121;13.61055;0;
33.8665524643056;-112.294112759172;15:55:04.45;8/16/2011;8;0.94;32.25;11.0838024042108;0;19.9;30.9838024042108;3.6;-1.2;38.7;.00;5.87;5.87;81;26;371.3;14.2;-1.8;D;829.5;1;30.993;1;1;165;13.04337;-112.294037;33.866824;0;0;1;N;122;122;5;124;124;13.04337;0;
33.866556463287;-112.294109952946;15:55:05.45;8/16/2011;8;0.94;32.25;11.0838024042108;0;19.1;30.1838024042108;3.6;-1.5;38.8;.00;5.87;5.87;81;26;371.3;14.2;-1.8;D;829.5;1;30.502;1;1;165;12.75774;-112.294037;33.866824;0;0;1;N;122;122;5;126;126;12.75774;0;
33.8665574645957;-112.294110002905;15:55:06.45;8/16/2011;8;0.96;30.68;11.0838024042108;0;18.3;29.3838024042108;3.5;-1.1;38.8;.00;5.69;5.69;81;26;371.3;14.2;-1.8;D;831.7;1;30.394;1;1;165;12.81257;-112.294037;33.866824;0;0;1;N;122;122;5;131;131;12.86759;0;
33.8665641844646;-112.29410443714;15:55:07.45;8/16/2011;8;1;30.25;11.0838024042108;0;17.8;28.8838024042108;3.6;-1.3;38.8;.00;5.63;5.63;81;26;371.3;14.2;-1.8;D;831.7;1;29.554;1;1;165;12.16235;-112.294037;33.866824;0;0;1;N;122;122;5;128;128;12.47447;0;
33.8665691455785;-112.294102800613;15:55:08.45;8/16/2011;8;0.97;30.21;11.0838024042108;0;17.6;28.6838024042108;3.5;-1.5;38.7;.00;5.63;5.63;81;26;371.3;14.2;-1.8;D;832.6;1;28.983;1;1;165;12.10011;-112.294037;33.866824;0;0;1;N;122;122;5;123;123;11.93001;0;
33.8665732363569;-112.294100179542;15:55:09.45;8/16/2011;8;0.97;30.21;11.0838024042108;0;16.2;27.2838024042108;3.5;-1.5;38.7;.00;5.60;5.60;81;26;371.3;14.2;-1.8;D;832.6;1;28.487;1;1;165;11.81597;-112.294037;33.866824;0;0;1;N;122;122;5;130;130;11.87057;0;
33.8665749579508;-112.294097954081;15:55:10.45;8/16/2011;8;1.08;26.09;11.0838024042108;0;16.2;27.2838024042108;3.7;-0.6;38.7;.00;5.60;5.60;81;26;371.3;14.2;-1.8;D;832.6;1;28.259;1;1;165;11.48766;-112.294037;33.866824;0;0;1;N;123;123;5;127;127;11.54384;0;
33.866579963345;-112.294096299377;15:55:11.45;8/16/2011;8;1.09;25.31;11.0838024042108;0;16.3;27.3838024042108;3.6;-2;38.7;.00;5.60;5.60;81;26;371.3;14.2;-1.8;D;833;1;27.683;1;1;165;11.40721;-112.294037;33.866824;0;0;1;N;122;122;5;126;126;11.4652;0;
33.8665849480627;-112.294092929644;15:55:12.45;8/16/2011;8;1.09;24.96;11.0838024042108;0;17;28.0838024042108;3.5;-1.2;38.7;.00;5.66;5.66;81;26;371.3;14.2;-1.8;D;833;1;27.079;1;1;165;10.99385;-112.294037;33.866824;0;0;1;N;122;122;5;117;117;11.05717;0;
33.8665908291067;-112.294089493937;15:55:13.47;8/16/2011;8;1.06;22.08;11.0838024042108;0;15.9;26.9838024042108;3.6;-1.7;38.7;.00;5.66;5.66;81;26;371.2;14.2;-1.8;D;832.9;1;26.377;1;1;165;10.58832;-112.294037;33.866824;0;0;1;N;122;122;5;123;123;10.96523;0;
33.866595831478;-112.294087845384;15:55:14.47;8/16/2011;8;1.04;21.74;11.0838024042108;0;15;26.0838024042108;3.6;-1.2;38.8;.00;5.66;5.66;81;26;371.2;14.2;-1.8;D;832.9;1;25.802;1;1;165;10.48305;-112.294037;33.866824;0;0;1;N;122;122;5;121;121;10.33546;0;
33.8666000252012;-112.294085470776;15:55:15.47;8/16/2011;8;1.04;21.74;11.0838024042108;0;13.7;24.7838024042108;3.6;-1.8;38.8;.00;5.66;5.66;81;26;371.2;14.2;-1.8;D;831.6;1;25.304;1;1;165;10.18701;-112.294037;33.866824;0;0;1;N;122;122;5;128;128;10.24536;0;
33.8666042243947;-112.294082853642;15:55:16.47;8/16/2011;8;0.93;22.43;11.0838024042108;0;13.1;24.1838024042108;3.5;-1.2;38.8;.00;5.66;5.66;81;26;371.2;14.2;-1.8;D;831.6;1;24.802;1;1;165;9.828363;-112.294037;33.866824;0;0;1;N;122;122;5;127;127;9.828363;0;
33.8666091770927;-112.294081210317;15:55:17.48;8/16/2011;8;0.95;21.26;11.0838024042108;0;13.2;24.2838024042108;3.7;-1.2;38.7;.00;5.78;5.78;81;26;371.2;14.2;-1.8;D;830.2;1;24.234;1;1;165;9.697157;-112.294037;33.866824;0;0;1;N;123;123;5;124;124;9.697157;0;
33.8666133625604;-112.294079095542;15:55:18.49;8/16/2011;8;0.94;19.36;11.0838024042108;0;12.8;23.8838024042108;3.6;-1.4;38.7;.00;5.78;5.78;81;26;371.2;14.2;-1.8;D;830.2;1;23.742;1;1;165;9.421869;-112.294037;33.866824;0;0;1;N;122;122;5;123;123;9.483192;0;
33.8666176115735;-112.294076880394;15:55:19.51;8/16/2011;8;0.94;19.36;11.0838024042108;0;12.4;23.4838024042108;3.6;-1.4;38.7;.00;5.78;5.78;81;26;371.2;14.2;-1.8;D;830.1;1;23.243;1;1;165;9.115163;-112.294037;33.866824;0;0;1;N;122;122;5;121;121;9.177406;0;
33.8666200787256;-112.294076594297;15:55:20.51;8/16/2011;8;0.97;24.58;11.0838024042108;0;11.6;22.6838024042108;3.6;-1.4;38.7;.00;5.78;5.78;81;26;371.2;14.2;-1.8;D;830.1;1;22.968;1;1;165;9.158516;-112.294037;33.866824;0;0;1;N;122;122;5;126;126;9.217863;0;
33.8666267150792;-112.294072497078;15:55:21.51;8/16/2011;8;1.09;20.91;11.0838024042108;0;10.9;21.9838024042108;3.6;-2.2;38.8;.00;5.84;5.84;81;26;371.2;14.2;-1.8;D;830.1;1;22.181;1;1;165;8.497171;-112.294037;33.866824;0;0;1;N;122;122;5;124;124;8.558455;0;
33.8666317260067;-112.294070848141;15:55:22.51;8/16/2011;8;1.09;19.81;11.0838024042108;0;10.5;21.5838024042108;3.6;-1.7;38.7;.00;5.96;5.96;81;26;371.2;14.2;-1.8;D;830.1;1;21.607;1;1;165;8.316211;-112.294037;33.866824;0;0;1;N;122;122;5;123;123;8.378418;0;
33.8666359063681;-112.294069578921;15:55:23.51;8/16/2011;8;1.12;20.18;11.0838024042108;0;9.9;20.9838024042108;3.6;-1.5;38.7;.00;6.06;6.06;81;26;371.2;14.2;-1.8;D;834.6;1;21.130;1;1;165;8.184099;-112.294037;33.866824;0;0;1;N;122;122;5;120;120;8.184099;0;
33.866640230208;-112.294067582631;15:55:24.51;8/16/2011;8;1.12;20.18;11.0838024042108;0;10;21.0838024042108;3.6;-2;38.7;.00;6.06;6.06;81;26;371.2;14.2;-1.8;D;834.6;1;20.629;1;1;165;7.867472;-112.294037;33.866824;0;0;1;N;122;122;5;118;118;7.867472;0;
33.8666425985799;-112.294067142758;15:55:25.52;8/16/2011;8;1.08;18.4;11.0838024042108;0;9.8;20.8838024042108;3.6;-1.4;38.6;.00;6.09;6.09;81;26;371.2;14.2;-1.8;D;834.6;1;20.362;1;1;165;7.855702;-112.294037;33.866824;0;0;1;N;122;122;5;118;118;7.855702;0;
33.866651746042;-112.29406426152;15:55:26.54;8/16/2011;8;1.05;15.56;11.0838024042108;0;8.3;19.3838024042108;3.6;-1.7;38.6;.00;6.27;6.27;81;26;371.2;14.2;-1.8;D;834.5;1;19.319;1;1;165;7.486443;-112.294037;33.866824;0;0;1;N;122;122;5;125;125;7.548595;0;
33.86665612537;-112.29406243089;15:55:27.55;8/16/2011;8;1.05;15.56;11.0838024042108;0;7.7;18.7838024042108;3.6;-0.9;38.7;.00;6.39;6.39;81;26;371.2;14.2;-1.8;D;834.5;1;18.814;1;1;165;7.169315;-112.294037;33.866824;0;0;1;N;122;122;5;126;126;7.231632;0;
33.8666585166006;-112.294061926162;15:55:28.55;8/16/2011;8;0.92;16.43;11.0838024042108;0;7;18.0838024042108;3.7;-1.4;38.7;.00;6.39;6.39;81;26;371.1;14.2;-1.8;D;834.5;1;18.544;1;1;165;7.128986;-112.294037;33.866824;0;0;1;N;123;123;5;130;130;7.188642;0;
33.8666642194586;-112.294059659279;15:55:29.55;8/16/2011;8;0.96;15.56;11.0838024042108;0;6.7;17.7838024042108;3.6;-1.2;38.7;.00;6.39;6.39;81;26;371.1;14.2;-1.8;D;834.5;1;17.890;1;1;165;6.71588;-112.294037;33.866824;0;0;1;N;122;122;5;127;127;6.71588;0;
33.8666686431733;-112.294058007212;15:55:30.55;8/16/2011;8;0.96;15.56;11.0838024042108;0;6.1;17.1838024042108;3.6;-0.8;38.7;.00;6.51;6.51;81;26;371.1;14.2;-1.8;D;832.2;1;17.383;1;1;165;6.40618;-112.294037;33.866824;0;0;1;N;122;122;5;129;129;6.40618;0;
33.8666693286878;-112.29405738502;15:55:31.55;8/16/2011;8;0.93;13.72;11.0838024042108;0;5.1;16.1838024042108;3.7;-1.7;38.7;.00;6.63;6.63;81;26;371.1;14.2;-1.8;D;832.2;1;17.302;1;1;165;6.245291;-112.294037;33.866824;0;0;1;N;123;123;5;133;133;6.245291;0;
33.8666743838565;-112.294057390128;15:55:32.56;8/16/2011;8;0.98;18.08;11.0838024042108;0;4.7;15.7838024042108;3.6;-1.3;38.7;.00;6.69;6.69;81;26;371.1;14.2;-1.8;D;832.2;1;16.743;1;1;165;6.456156;-112.294037;33.866824;0;0;1;N;122;122;5;135;135;6.456156;0;
33.8666808908594;-112.294054698133;15:55:33.57;8/16/2011;8;1.09;14.44;11.0838024042108;0;4.8;15.8838024042108;3.5;-1.2;38.8;.00;6.88;6.88;81;26;371.1;14.2;-1.8;D;832.2;1;15.997;1;1;165;5.862956;-112.294037;33.866824;0;0;1;N;122;122;5;132;132;5.862956;0;
33.8666858912975;-112.294053033331;15:55:34.57;8/16/2011;8;1.1;14.06;11.0838024042108;0;4.4;15.4838024042108;3.6;-1.3;38.7;.00;6.94;6.94;81;26;371.1;14.2;-1.8;D;832.2;1;15.428;1;1;165;5.506036;-112.294037;33.866824;0;0;1;N;122;122;5;130;130;5.506036;0;
33.8666903486929;-112.294051516917;15:55:35.57;8/16/2011;8;1.1;14.06;11.0838024042108;0;5.2;16.2838024042108;3.6;-1.3;38.7;.00;6.97;6.97;81;26;371.1;14.2;-1.8;D;832.2;1;14.922;1;1;165;5.153519;-112.294037;33.866824;0;0;1;N;122;122;5;122;122;5.153519;0;
33.8666975628583;-112.294049700372;15:55:36.57;8/16/2011;8;1.1;13.45;11.0838024042108;0;4.3;15.3838024042108;3.6;-1.7;38.6;.00;6.94;6.94;81;26;371.1;14.2;-1.8;D;833.5;1;14.108;1;1;165;4.767754;-112.294037;33.866824;0;0;1;N;122;122;5;125;125;4.767754;0;
33.8667020762029;-112.294048217765;15:55:37.59;8/16/2011;8;1.1;13.45;11.0838024042108;0;3.9;14.9838024042108;3.6;-1.6;38.7;.00;7.12;7.12;81;26;371.1;14.2;-1.8;D;833.5;1;13.597;1;1;165;4.36869;-112.294037;33.866824;0;0;1;N;122;122;5;125;125;4.36869;0;
33.866705261373;-112.29404722219;15:55:38.59;8/16/2011;8;1.06;10.41;11.0838024042108;0;3.2;14.2838024042108;3.6;-1.1;38.7;.00;7.18;7.18;81;26;371.1;14.2;-1.8;D;833.4;1;13.237;1;1;165;4.088744;-112.294037;33.866824;0;0;1;N;122;122;5;127;127;4.088744;0;
33.8667103559988;-112.294047240779;15:55:39.59;8/16/2011;8;1.09;9.73;11.0838024042108;0;2.4;13.4838024042108;3.6;-1.5;38.7;.00;7.15;7.15;81;26;371.0;14.2;-1.8;D;833.4;1;12.672;1;1;165;4.279116;-112.294037;33.866824;0;0;1;N;122;122;5;133;133;4.279116;0;
33.8667136085444;-112.294045623476;15:55:40.60;8/16/2011;8;0.98;8.83;11.0838024042108;0;2;13.0838024042108;3.7;-1.2;38.7;.00;7.06;7.06;81;26;371.0;14.2;-1.8;D;833.4;1;12.301;1;1;165;3.711206;-112.294037;33.866824;0;0;1;N;123;123;5;129;129;3.711206;0;
33.8667186081077;-112.294045641529;15:55:41.60;8/16/2011;8;0.99;8.1;11.0838024042108;0;2.4;13.4838024042108;3.5;-1.2;38.7;.00;7.43;7.43;81;26;371.0;14.2;-1.8;D;834.3;1;11.746;1;1;165;3.894841;-112.294037;33.866824;0;0;1;N;122;122;5;130;130;3.894841;0;
33.8667236121741;-112.294043995605;15:55:42.60;8/16/2011;8;1;8.12;11.0838024042108;0;1.6;12.6838024042108;3.5;-1.4;38.7;.00;7.49;7.49;81;26;371.0;14.2;-1.8;D;834.3;1;11.181;1;1;165;3.311588;-112.294037;33.866824;0;0;1;N;122;122;5;131;131;3.311588;0;
33.8667309042256;-112.294043095332;15:55:43.62;8/16/2011;8;1.03;11.63;11.0838024042108;0;1.3;12.3838024042108;3.6;-1.1;38.8;.00;7.49;7.49;81;26;371.0;14.2;-1.8;D;834.3;1;10.368;1;1;165;3.111832;-112.294037;33.866824;0;0;1;N;122;122;5;132;132;3.111832;0;
33.8667359049131;-112.294041432451;15:55:44.62;8/16/2011;8;1.01;12.36;11.0838024042108;0;1;12.0838024042108;3.6;-1.2;38.7;.00;7.55;7.55;81;26;371.0;14.2;-1.8;D;834.3;1;9.805;1;1;165;2.392301;-112.294037;33.866824;0;0;1;N;122;122;5;129;129;2.392301;0;
33.8667404428749;-112.294040283754;15:55:45.62;8/16/2011;8;1.01;12.36;11.0838024042108;0;0.1;11.1838024042108;3.5;-1.3;38.7;.00;7.58;7.58;81;26;371.0;14.2;-1.8;D;833.3;1;9.296;1;1;165;1.868999;-112.294037;33.866824;0;0;1;N;122;122;5;131;131;1.868999;0;
33.8667442418305;-112.294039786652;15:55:46.63;8/16/2011;8;1.07;10.11;11.0838024042108;0;0.4;11.4838024042108;3.6;-1;38.7;.00;7.61;7.61;81;26;371.0;14.2;-1.8;D;833.3;1;8.873;1;1;165;1.661736;-112.294037;33.866824;0;0;1;N;122;122;5;130;130;1.661736;0;
33.866748794268;-112.294038723498;15:55:47.63;8/16/2011;8;1.07;10.11;11.0838024042108;0;359.8;10.8838024042108;3.6;-1.4;38.8;.00;7.58;7.58;81;26;371.0;14.2;-1.8;D;833.3;1;8.364;1;1;165;1.090143;-112.294037;33.866824;0;0;1;N;122;122;5;127;127;1.090143;0;
33.8667519797452;-112.294039195098;15:55:48.63;8/16/2011;8;1.07;10.58;11.0838024042108;0;358.9;9.98380240421073;3.5;-1.1;38.7;.00;7.58;7.58;81;26;371.0;14.2;-1.8;D;833.3;1;8.011;1;1;165;1.449715;-112.294037;33.866824;0;0;1;N;122;122;5;136;136;1.449715;0;
33.8667570292609;-112.294037545337;15:55:49.63;8/16/2011;8;1.06;8.25;11.0838024042108;0;358.6;9.68380240421078;3.7;-0.9;38.7;.00;7.58;7.58;81;26;371.0;14.2;-1.8;D;834.2;1;7.447;1;1;165;0.3873911;-112.294037;33.866824;0;0;1;N;123;123;5;131;131;0.3873911;0;
33.8667620333146;-112.294037572213;15:55:50.65;8/16/2011;8;1.04;4.73;11.0838024042108;0;358.7;9.78380240421075;3.5;-1.7;38.7;.00;7.58;7.58;81;26;371.0;14.2;-1.8;D;834.2;1;6.891;1;1;165;0.4393055;-112.294037;33.866824;0;0;1;N;122;122;5;131;131;0.4393055;0;
33.8667669854637;-112.294035901856;15:55:51.65;8/16/2011;8;1.06;3.6;11.0838024042108;0;358.9;9.98380240421073;3.6;-0.8;38.7;.00;7.67;7.67;81;26;371.0;14.2;-1.8;D;835;1;6.342;1;1;165;359.0837;-112.294037;33.866824;0;0;1;N;122;122;5;120;120;359.0837;0;
33.866771985252;-112.294035896012;15:55:52.66;8/16/2011;8;1.03;2.97;11.0838024042108;0;358.6;9.68380240421078;3.5;-1.9;38.7;.00;7.73;7.73;81;26;371.0;14.2;-1.8;D;835;1;5.785;1;1;165;358.9904;-112.294037;33.866824;0;0;1;N;122;122;5;121;121;358.9904;0;
33.8667770343759;-112.294035911077;15:55:53.66;8/16/2011;8;1.02;3.06;11.0838024042108;0;358.3;9.38380240421077;3.5;-1.1;38.7;.00;7.79;7.79;81;26;370.9;14.2;-1.8;D;835;1;5.224;1;1;165;358.8971;-112.294037;33.866824;0;0;1;N;122;122;5;123;123;358.8971;0;
33.8667819978768;-112.294035991877;15:55:54.66;8/16/2011;8;1.05;2.32;11.0838024042108;0;356.8;7.88380240421077;3.5;-2.2;38.7;.00;7.88;7.88;81;26;370.9;14.2;-1.8;D;835;1;4.671;1;1;165;358.8583;-112.294037;33.866824;0;0;1;N;122;122;5;133;133;358.8583;0;
33.8667870010511;-112.29403601479;15:55:55.67;8/16/2011;8;1.02;2.54;11.0838024042108;0;357.6;8.68380240421078;3.6;-2.2;38.7;.00;8.03;8.03;81;26;370.9;14.2;-1.8;D;835;1;4.115;1;1;165;358.7334;-112.294037;33.866824;0;0;1;N;122;122;5;127;127;358.7334;0;
33.86679516711;-112.294034652457;15:55:56.67;8/16/2011;8;1.04;6.28;11.0838024042108;0;358;9.08380240421076;3.4;-3.6;38.7;.00;8.03;8.03;81;26;370.9;14.2;-1.8;D;831.7;2;104.333;1;1;165;316.2549;-112.294816;33.867473;0;0;1;N;122;122;5;5;5;316.2549;0;
33.8667997634325;-112.294033938502;15:55:57.67;8/16/2011;8;1.04;6.28;11.0838024042108;0;354.2;5.28380240421075;3.4;-3.9;38.7;.00;8.07;8.07;81;26;370.9;14.2;-1.8;D;831.7;2;104.010;1;1;165;316.034;-112.294816;33.867473;0;0;1;N;122;122;5;5;5;316.034;0;
33.8668020365234;-112.294034795592;15:55:58.67;8/16/2011;8;0.98;7.28;11.0838024042108;0;349.5;0.583802404210758;3.7;-2;38.7;.00;8.00;8.01;81;26;370.9;14.2;-1.8;D;829.5;2;103.773;1;1;165;315.9685;-112.294816;33.867473;0;0;1;N;123;123;5;11;11;315.9685;0;
33.8668053671559;-112.294033549705;15:55:59.67;8/16/2011;8;0.96;11.99;11.0838024042108;0;342.1;353.183802404211;3.8;-2.7;38.8;.00;7.97;7.97;81;26;370.9;14.2;-1.8;D;829.5;2;103.587;1;1;165;315.7804;-112.294816;33.867473;0;0;1;N;123;123;5;25;25;315.7804;0;
33.8668103305975;-112.294034004715;15:56:00.68;8/16/2011;8;0.92;6.41;11.0838024042108;0;337.4;348.483802404211;3.8;-1.8;38.7;.00;8.00;8.00;81;26;370.9;14.2;-1.8;D;826.9;2;103.163;1;1;165;315.5834;-112.294816;33.867473;0;0;1;N;123;123;5;39;39;315.5834;0;
33.8668152703127;-112.294034369853;15:56:01.69;8/16/2011;8;0.91;359.69;11.0838024042108;0;332.7;343.783802404211;3.8;-1.7;38.7;.00;7.97;7.97;81;26;370.9;14.2;-1.8;D;826.9;2;102.748;1;1;165;315.3824;-112.294816;33.867473;0;0;1;N;124;124;5;49;49;315.3824;0;
33.8668185305522;-112.294034685324;15:56:02.70;8/16/2011;8;0.91;350.82;11.0838024042108;0;328.8;339.883802404211;3.9;-2.4;38.7;.00;8.03;8.03;81;26;370.9;14.2;-1.8;D;822.4;2;102.469;1;1;165;315.2516;-112.294816;33.867473;0;0;1;N;124;124;5;61;61;315.2516;0;
33.8668236200147;-112.294036710991;15:56:03.70;8/16/2011;8;0.95;344.39;11.0838024042108;0;325.5;336.583802404211;3.8;-1.4;38.7;.00;8.09;8.09;81;26;370.9;14.2;-1.8;D;822.4;2;101.936;1;1;165;315.1024;-112.294816;33.867473;0;0;1;N;123;123;5;69;69;315.1024;0;
33.8668266801447;-112.294038575238;15:56:04.70;8/16/2011;8;1;338.23;11.0838024042108;0;322.2;333.283802404211;3.8;-1.3;38.7;.00;8.15;8.15;81;26;370.9;14.2;-1.8;D;822.4;2;101.574;1;1;165;315.0357;-112.294816;33.867473;0;0;1;N;123;123;5;77;77;315.0357;0;
33.8668333333333;-112.294041666667;15:56:05.70;8/16/2011;8;1.06;329.86;11.0838024042108;0;319.3;330.383802404211;3.9;-0.6;38.7;.00;8.15;8.16;81;26;370.9;14.2;-1.8;D;822.4;2;101.063;1;1;165;314.889;-112.294816;33.867473;0;0;1;N;124;124;5;84;84;314.889;0;
33.8668382385976;-112.294044516106;15:56:06.70;8/16/2011;8;1.06;328.58;11.0838024042108;0;315.7;326.783802404211;3.7;-1.2;38.7;.00;8.18;8.18;81;26;370.9;14.2;-1.8;D;823.2;2;100.278;1;1;165;314.7385;-112.294816;33.867473;0;0;1;N;123;123;5;89;89;314.7385;0;
33.8668432389952;-112.294047950532;15:56:07.70;8/16/2011;8;1.04;328.27;11.0838024042108;0;314.4;325.483802404211;3.8;-0.9;38.7;.00;8.09;8.10;81;26;370.9;14.2;-1.8;D;823.2;2;99.662;1;1;165;314.6397;-112.294816;33.867473;0;0;1;N;123;123;5;93;93;314.6397;0;
33.8668464908118;-112.294051325599;15:56:08.71;8/16/2011;8;1.05;326.38;11.0838024042108;0;312.2;323.283802404211;3.7;-0.2;38.7;.00;7.88;7.88;81;26;370.8;14.2;-1.8;D;826.7;2;99.186;1;1;165;314.6176;-112.294816;33.867473;0;0;1;N;123;123;5;99;99;314.6176;0;
33.8668514828978;-112.294054753107;15:56:09.71;8/16/2011;8;0.98;319.79;11.0838024042108;0;310.2;321.283802404211;3.7;-1.2;38.7;.00;7.85;7.85;81;26;370.8;14.2;-1.8;D;827.1;2;98.571;1;1;165;314.5171;-112.294816;33.867473;0;0;1;N;123;123;5;104;104;314.5171;0;
33.8668550220251;-112.294058345417;15:56:10.73;8/16/2011;8;0.98;319.79;11.0838024042108;0;308;319.083802404211;3.6;-1.1;38.7;.00;7.91;7.91;81;26;370.8;14.2;-1.8;D;827.1;2;98.058;1;1;165;314.489;-112.294816;33.867473;0;0;1;N;122;122;5;108;108;314.489;0;
33.8668560770517;-112.294059655925;15:56:11.73;8/16/2011;8;0.98;317.18;11.0838024042108;0;306.1;317.183802404211;3.6;-1.6;38.7;.00;8.40;8.40;81;26;370.8;14.2;-1.8;D;828.8;2;97.890;1;1;165;314.4897;-112.294816;33.867473;0;0;1;N;122;122;5;99;99;314.4897;0;
33.8668593879392;-112.294064765704;15:56:12.74;8/16/2011;8;0.99;315.42;11.0838024042108;0;304.3;315.383802404211;3.8;-1.4;38.7;.00;8.40;8.40;81;26;370.8;14.2;-1.8;D;828.8;2;97.295;1;1;165;314.5297;-112.294816;33.867473;0;0;1;N;123;123;5;109;109;314.5297;0;
33.866863237937;-112.294068971505;15:56:13.75;8/16/2011;8;0.98;312.21;11.0838024042108;0;302.4;313.483802404211;4;0.1;38.7;.00;8.40;8.40;81;26;370.8;14.2;-1.8;D;829.7;2;96.718;1;1;165;314.5102;-112.294816;33.867473;0;0;1;N;123;123;5;115;115;314.5102;0;
33.8668648102612;-112.294074086178;15:56:14.75;8/16/2011;8;1.05;307.74;11.0838024042108;0;300.6;311.683802404211;3.9;-0.9;38.7;.00;8.40;8.40;81;26;370.8;14.2;-1.8;D;829.7;2;96.259;1;1;165;314.6331;-112.294816;33.867473;0;0;1;N;122;122;5;129;129;314.6331;0;
33.8668683333333;-112.29408;15:56:15.76;8/16/2011;8;1.11;308.12;11.0838024042108;0;299.7;310.783802404211;3.7;-0.2;38.7;.00;8.40;8.40;81;26;370.8;14.2;-1.8;D;830.1;2;95.671;1;1;165;314.6777;-112.294816;33.867473;0;0;1;N;122;122;5;137;137;314.6777;0;
33.8668728893029;-112.29408674803;15:56:16.76;8/16/2011;8;1.12;308.07;11.0838024042108;0;298.7;309.783802404211;3.7;0.5;38.7;.00;8.37;8.37;81;26;370.8;14.2;-1.8;D;830.1;2;94.796;1;1;165;314.7431;-112.294816;33.867473;0;0;1;N;122;122;5;143;143;314.7431;0;
33.8668761956907;-112.294091703136;15:56:17.76;8/16/2011;8;1.13;306.88;11.0838024042108;0;299;310.083802404211;3.5;-0.2;38.7;.00;8.34;8.34;81;26;370.8;14.2;-1.8;D;830.1;2;94.213;1;1;165;314.7801;-112.294816;33.867473;0;0;1;N;122;122;5;141;141;314.7801;0;
33.8668795343678;-112.294096689688;15:56:18.76;8/16/2011;8;1.11;305.68;11.0838024042108;0;298.9;309.983802404211;3.4;-0.2;38.7;.00;8.34;8.34;81;26;370.8;14.2;-1.8;D;830.1;2;93.624;1;1;165;314.8173;-112.294816;33.867473;0;0;1;N;122;122;5;142;142;314.8173;0;
33.8668829140985;-112.294101721216;15:56:19.78;8/16/2011;8;1.07;308.31;11.0838024042108;0;299.9;310.983802404211;3.5;-1;38.7;.00;8.33;8.34;81;26;370.8;14.2;-1.8;D;831.4;2;93.030;1;1;165;314.8548;-112.294816;33.867473;0;0;1;N;122;122;5;136;136;314.8548;0;
33.866885;-112.294103333333;15:56:20.79;8/16/2011;8;1.06;307.71;11.0838024042108;0;300.5;311.583802404211;3.5;-1;38.6;.00;8.24;8.25;81;26;370.8;14.2;-1.8;D;831.4;2;92.517;1;1;165;314.8739;-112.294816;33.867473;0;0;1;N;122;122;5;132;132;314.8739;0;
33.8668879201475;-112.29410997408;15:56:21.79;8/16/2011;8;1.04;305.72;11.0838024042108;0;301.5;312.583802404211;3.7;-1;38.7;.00;8.21;8.22;81;26;370.8;14.2;-1.8;D;835;2;92.097;1;1;165;314.9437;-112.294816;33.867473;0;0;1;N;123;123;5;126;126;314.9437;0;
33.8668912407889;-112.294114980422;15:56:22.79;8/16/2011;8;1.01;305.4;11.0838024042108;0;301;312.083802404211;3.7;-0.5;38.7;.00;8.18;8.19;81;26;370.8;14.2;-1.8;D;835;2;91.509;1;1;165;314.9845;-112.294816;33.867473;0;0;1;N;123;123;5;130;130;314.9845;0;
33.8668935251493;-112.294120814845;15:56:23.79;8/16/2011;8;1.03;306.29;11.0838024042108;0;301.2;312.283802404211;3.7;-0.4;38.7;.00;8.15;8.16;81;26;370.8;14.2;-1.8;D;836.3;2;90.949;1;1;165;315.1112;-112.294816;33.867473;0;0;1;N;123;123;5;129;129;315.1112;0;
33.8668966168472;-112.294124950787;15:56:24.79;8/16/2011;8;1.03;306.29;11.0838024042108;0;300.7;311.783802404211;3.7;-0.4;38.7;.00;8.18;8.19;81;26;370.7;14.2;-1.8;D;836.3;2;90.436;1;1;165;315.1289;-112.294816;33.867473;0;0;1;N;123;123;5;133;133;315.1289;0;
33.8668983333333;-112.294128333333;15:56:25.79;8/16/2011;8;1.08;302.76;11.0838024042108;0;301;312.083802404211;3.7;-0.6;38.7;.00;8.06;8.06;81;26;370.7;14.2;-1.8;D;836.3;2;90.155;1;1;165;315.1604;-112.294816;33.867473;0;0;1;N;123;123;5;131;131;315.1604;0;
33.8669014903638;-112.294132548474;15:56:26.79;8/16/2011;8;1.08;302.76;11.0838024042108;0;301.3;312.383802404211;3.7;-0.4;38.7;.00;6.97;6.97;81;26;370.7;14.2;-1.8;D;837.5;2;89.557;1;1;165;315.2023;-112.294816;33.867473;0;0;1;N;122;122;5;131;131;315.1992;0;
33.8669031719708;-112.294137532417;15:56:27.79;8/16/2011;8;1.08;302.41;11.0838024042108;0;301.1;312.183802404211;3.7;-0.6;38.7;.00;7.06;7.06;81;26;370.7;14.2;-1.8;D;837.5;2;89.100;1;1;165;315.3276;-112.294816;33.867473;0;0;1;N;123;123;5;132;132;315.3276;0;
33.8669064260998;-112.294142476464;15:56:28.80;8/16/2011;8;1.12;305.71;11.0838024042108;0;300.6;311.683802404211;3.7;0.1;38.7;.00;7.55;7.55;81;26;370.7;14.2;-1.8;D;837.5;2;88.522;1;1;165;315.373;-112.294816;33.867473;0;0;1;N;123;123;5;136;136;315.373;0;
33.8669118463356;-112.29415082765;15:56:29.81;8/16/2011;8;1.13;307.5;11.0838024042108;0;300.3;311.383802404211;3.5;0;38.7;.00;7.55;7.55;81;26;370.7;14.2;-1.8;D;837.5;2;87.551;1;1;165;315.455;-112.294816;33.867473;0;0;1;N;122;122;5;140;140;315.455;0;
33.8669139442095;-112.294154167364;15:56:30.81;8/16/2011;8;1.13;305.94;11.0838024042108;0;300.6;311.683802404211;3.5;-0.2;38.7;.00;7.67;7.67;81;26;370.7;14.2;-1.8;D;837.5;2;87.169;1;1;165;315.4919;-112.294816;33.867473;0;0;1;N;122;122;5;141;141;315.4919;0;
33.8669185333504;-112.294160805475;15:56:31.81;8/16/2011;8;1.08;308.12;11.0838024042108;0;301.6;312.683802404211;3.7;-1.1;38.7;.00;7.67;7.67;81;26;370.7;14.2;-1.8;D;837.5;2;86.375;1;1;165;315.5446;-112.294816;33.867473;0;0;1;N;123;123;5;133;133;315.5446;0;
33.8669218775895;-112.294165793913;15:56:32.81;8/16/2011;8;1.06;308.34;11.0838024042108;0;301.3;312.383802404211;3.7;-1;38.8;.00;7.58;7.58;81;26;370.7;14.2;-1.8;D;837.5;2;85.787;1;1;165;315.5902;-112.294816;33.867473;0;0;1;N;123;123;5;135;135;315.5902;0;
33.8669250322346;-112.294169938045;15:56:33.81;8/16/2011;8;1.06;308.34;11.0838024042108;0;301.9;312.983802404211;3.6;-0.6;38.7;.00;7.52;7.52;81;26;370.7;14.2;-1.8;D;837.5;2;85.269;1;1;165;315.6089;-112.294816;33.867473;0;0;1;N;122;122;5;134;134;315.6056;0;
33.8669248537118;-112.294172448072;15:56:34.81;8/16/2011;8;1.03;306.64;11.0838024042108;0;301.1;312.183802404211;3.6;-0.8;38.7;.00;7.42;7.42;81;26;370.7;14.2;-1.8;D;837.5;2;85.121;1;1;165;315.7298;-112.294816;33.867473;0;0;1;N;122;122;5;141;141;315.7254;0;
33.8669289633976;-112.294177479926;15:56:35.82;8/16/2011;8;1.03;307.31;11.0838024042108;0;301.6;312.683802404211;3.4;-0.4;38.7;.00;7.42;7.42;81;26;370.7;14.2;-1.8;D;837.5;2;84.470;1;1;165;315.739;-112.294816;33.867473;0;0;1;N;122;122;5;137;137;315.7747;0;
33.8669335598151;-112.294184101731;15:56:36.84;8/16/2011;8;1.01;306.91;11.0838024042108;0;301;312.083802404211;3.4;-1;38.7;.00;7.36;7.36;81;26;370.7;14.2;-1.8;D;837.5;2;83.677;1;1;165;315.7946;-112.294816;33.867473;0;0;1;N;122;122;5;143;143;315.7946;0;
33.8669333333333;-112.294186666667;15:56:37.86;8/16/2011;8;1.09;302.53;11.0838024042108;0;302.3;313.383802404211;3.4;-1.4;38.6;.00;7.27;7.27;81;26;370.7;14.2;-1.8;D;837.5;2;83.163;1;1;165;315.8092;-112.294816;33.867473;0;0;1;N;122;122;5;135;135;315.8092;0;
33.8669366666667;-112.294191666667;15:56:38.86;8/16/2011;8;1.07;303.18;11.0838024042108;0;301.8;312.883802404211;3.5;-2;38.7;.00;7.21;7.21;81;26;370.6;14.2;-1.8;D;838.3;2;83.017;1;1;165;315.9378;-112.294816;33.867473;0;0;1;N;122;122;5;143;143;315.9378;0;
33.86694;-112.294196666667;15:56:39.86;8/16/2011;8;1.13;306.77;11.0838024042108;0;303;314.083802404211;3.5;-1.2;38.7;.00;7.15;7.15;81;26;370.6;14.2;-1.8;D;838.3;2;82.429;1;1;165;315.9869;-112.294816;33.867473;0;0;1;N;122;122;5;136;136;315.9869;0;
33.8669439716388;-112.294202470638;15:56:40.86;8/16/2011;8;1.11;306.99;11.0838024042108;0;302.5;313.583802404211;3.5;-1.2;38.7;.00;7.00;7.00;81;26;370.6;14.2;-1.8;D;838.3;2;81.666;1;1;165;316.0812;-112.294816;33.867473;0;0;1;N;123;123;5;139;139;316.037;0;
33.8669466666667;-112.294206666667;15:56:41.86;8/16/2011;8;1.12;307.03;11.0838024042108;0;303.2;314.283802404211;3.7;-0.9;38.7;.00;6.94;6.94;81;26;370.6;14.2;-1.8;D;837.4;2;81.152;1;1;165;316.0933;-112.294816;33.867473;0;0;1;N;123;123;5;136;136;316.0933;0;
33.86695;-112.294211666667;15:56:42.86;8/16/2011;8;1.13;307.91;11.0838024042108;0;302.9;313.983802404211;3.7;-0.9;38.7;.00;6.78;6.79;81;26;370.6;14.2;-1.8;D;837.4;2;80.668;1;1;165;316.1445;-112.294816;33.867473;0;0;1;N;123;123;5;138;138;316.142;0;
33.8669553101266;-112.294219090812;15:56:43.87;8/16/2011;8;1.07;311.15;11.0838024042108;0;303.3;314.383802404211;3.8;-0.5;38.6;.00;6.66;6.67;81;26;370.6;14.2;-1.8;D;837.3;2;79.693;1;1;165;316.2472;-112.294816;33.867473;0;0;1;N;123;123;5;141;141;316.2472;0;
33.8669566666667;-112.294221666667;15:56:44.87;8/16/2011;8;1.09;311.78;11.0838024042108;0;303.1;314.183802404211;3.7;-0.2;38.7;.00;6.60;6.61;81;26;370.6;14.2;-1.8;D;837.3;2;79.180;1;1;165;316.2601;-112.294816;33.867473;0;0;1;N;123;123;5;143;143;316.2601;0;
33.8669589821627;-112.294227458603;15:56:45.87;8/16/2011;8;1.02;308.67;11.0838024042108;0;303.4;314.483802404211;3.4;0.3;38.7;.00;6.45;6.45;81;26;370.6;14.2;-1.8;D;837.3;2;78.865;1;1;165;316.4474;-112.294816;33.867473;0;0;1;N;122;122;5;143;143;316.4474;0;
33.8669616666667;-112.29423;15:56:46.88;8/16/2011;8;1.03;308.35;11.0838024042108;0;303.5;314.583802404211;3.3;-0.9;38.7;.00;6.33;6.33;81;26;370.6;14.2;-1.8;D;837.3;2;78.350;1;1;165;316.4567;-112.294816;33.867473;0;0;1;N;121;121;5;143;143;316.4567;0;
33.866965;-112.294235;15:56:47.88;8/16/2011;8;1.03;307.1;11.0838024042108;0;304.1;315.183802404211;3.4;-0.6;38.7;.00;6.30;6.30;81;26;370.5;14.2;-1.8;D;837.2;2;77.973;1;1;165;316.4285;-112.294816;33.867473;0;0;1;N;122;122;5;143;143;316.4285;0;
33.8669683333333;-112.29424;15:56:48.88;8/16/2011;8;1.03;308.26;11.0838024042108;0;304.9;315.983802404211;3.5;-0.1;38.7;.00;6.30;6.30;81;26;370.5;14.2;-1.8;D;837.2;2;77.386;1;1;165;316.4851;-112.294816;33.867473;0;0;1;N;122;122;5;140;140;316.4851;0;
33.8669720311177;-112.294247277129;15:56:49.89;8/16/2011;8;1.08;306.05;11.0838024042108;0;305.9;316.983802404211;3.7;-1.3;38.7;.00;6.30;6.30;81;26;370.5;14.2;-1.8;D;837.2;2;76.553;1;1;165;316.6917;-112.294816;33.867473;0;0;1;N;124;124;5;140;140;316.6923;0;
33.8669733333333;-112.29425;15:56:50.89;8/16/2011;8;1.06;305.99;11.0838024042108;0;306.3;317.383802404211;3.8;-1.5;38.7;.00;6.21;6.21;81;26;370.5;14.2;-1.8;D;837.2;2;76.038;1;1;165;316.6868;-112.294816;33.867473;0;0;1;N;123;123;5;136;136;316.6884;0;
33.8669766666667;-112.294255;15:56:51.89;8/16/2011;8;1.12;309.07;11.0838024042108;0;306.4;317.483802404211;3.7;-0.8;38.7;.00;6.06;6.06;81;26;370.5;14.2;-1.8;D;837.2;2;75.761;1;1;165;316.749;-112.294816;33.867473;0;0;1;N;123;123;5;139;139;316.749;0;
33.86698;-112.294258333333;15:56:52.89;8/16/2011;8;1.11;312.02;11.0838024042108;0;307.1;318.183802404211;3.6;-0.3;38.7;.00;5.96;5.96;81;26;370.5;14.2;-1.8;D;837.2;2;75.175;1;1;165;316.8099;-112.294816;33.867473;0;0;1;N;122;122;5;139;139;316.812;0;
33.8669833333333;-112.294263333333;15:56:53.89;8/16/2011;8;1.12;310.65;11.0838024042108;0;308;319.083802404211;3.3;-0.2;38.7;.00;5.90;5.90;81;26;370.5;14.2;-1.8;D;837.2;2;74.694;1;1;165;316.7836;-112.294816;33.867473;0;0;1;N;121;121;5;133;133;316.7836;0;
33.8669904436237;-112.294270497723;15:56:54.89;8/16/2011;8;1.12;312.14;11.0838024042108;0;308.5;319.583802404211;3.4;-1.9;38.6;.00;5.87;5.87;81;26;370.5;14.2;-1.8;D;837.2;2;73.593;1;1;165;316.813;-112.294816;33.867473;0;0;1;N;122;122;5;133;133;316.813;0;
33.8669916666667;-112.294273333333;15:56:55.90;8/16/2011;8;1.08;314.1;11.0838024042108;0;308.7;319.783802404211;3.5;-1.8;38.6;.00;5.87;5.87;81;26;370.5;14.2;-1.8;D;837.2;2;73.079;1;1;165;316.7951;-112.294816;33.867473;0;0;1;N;122;122;5;132;132;316.7951;0;
33.8669957098034;-112.294277378528;15:56:56.91;8/16/2011;8;1.05;317.46;11.0838024042108;0;308.7;319.783802404211;3.6;-2.2;38.7;.00;5.75;5.75;81;26;370.5;14.2;-1.8;D;836.6;2;72.731;1;1;165;316.8622;-112.294816;33.867473;0;0;1;N;122;122;5;135;135;316.8622;0;
33.8670004670566;-112.29428380652;15:56:57.92;8/16/2011;8;1.01;314.85;11.0838024042108;0;309.9;320.983802404211;3.8;-1.2;38.7;.00;5.81;5.81;81;26;370.5;14.2;-1.8;D;836.6;2;71.939;1;1;165;316.919;-112.294816;33.867473;0;0;1;N;123;123;5;130;130;316.919;0;
33.8670038053581;-112.294287132254;15:56:58.92;8/16/2011;8;0.99;315.99;11.0838024042108;0;309.1;320.183802404211;4;-0.9;38.7;.00;5.81;5.81;81;26;370.5;14.2;-1.8;D;838;2;71.458;1;1;165;316.8955;-112.294816;33.867473;0;0;1;N;124;124;5;135;135;316.8955;0;
33.8670071784735;-112.294292161509;15:56:59.92;8/16/2011;8;0.99;315.21;11.0838024042108;0;309.4;320.483802404211;3.7;-0.4;38.7;.00;5.63;5.63;81;26;370.5;14.2;-1.8;D;838;2;70.867;1;1;165;316.9624;-112.294816;33.867473;0;0;1;N;123;123;5;137;137;316.968;0;
33.8670090461503;-112.294294040645;15:57:00.92;8/16/2011;8;0.99;314.37;11.0838024042108;0;309.3;320.383802404211;4;0;38.7;.00;5.60;5.60;81;26;370.4;14.2;-1.8;D;837.9;2;70.597;1;1;165;316.9503;-112.294816;33.867473;0;0;1;N;124;124;5;137;137;316.9425;0;
33.8670121931201;-112.294298808148;15:57:01.92;8/16/2011;8;1.04;311.35;11.0838024042108;0;310.3;321.383802404211;3.6;-0.5;38.7;.00;5.60;5.60;81;26;370.4;14.2;-1.8;D;837.9;2;70.041;1;1;165;317.018;-112.294816;33.867473;0;0;1;N;122;122;5;134;134;317.0246;0;
33.8670162211816;-112.294304454125;15:57:02.93;8/16/2011;8;1.04;311.08;11.0838024042108;0;310.3;321.383802404211;3.5;-0.4;38.7;.00;5.60;5.60;81;26;370.4;14.2;-1.8;D;840.6;2;69.358;1;1;165;317.0808;-112.294816;33.867473;0;0;1;N;122;122;5;136;136;317.0873;0;
33.8670212330219;-112.294309435816;15:57:03.93;8/16/2011;8;1.1;314;11.0838024042108;0;310.8;321.883802404211;3.6;-0.2;38.6;.00;5.54;5.54;81;26;370.4;14.2;-1.8;D;840.6;2;68.637;1;1;165;317.0452;-112.294816;33.867473;0;0;1;N;122;122;5;134;134;317.0452;0;
33.8670245886958;-112.294312735807;15:57:04.93;8/16/2011;8;1.1;315.19;11.0838024042108;0;311.1;322.183802404211;3.5;-0.6;38.6;.00;5.57;5.57;81;26;370.4;14.2;-1.8;D;840.6;2;68.156;1;1;165;317.0189;-112.294816;33.867473;0;0;1;N;122;122;5;132;132;317.0189;0;
33.8670257295076;-112.294315683639;15:57:05.94;8/16/2011;8;1.08;315.23;11.0838024042108;0;310.9;321.983802404211;3.4;-1.9;38.7;.00;5.54;5.54;81;26;370.4;14.2;-1.8;D;840.6;2;67.878;1;1;165;317.114;-112.294816;33.867473;0;0;1;N;122;122;5;134;134;317.114;0;
33.8670313033051;-112.294322751777;15:57:06.95;8/16/2011;8;1.1;315.33;11.0838024042108;0;310.2;321.283802404211;3.5;-1.9;38.6;.00;5.26;5.26;81;26;370.4;14.2;-1.8;D;840.6;2;66.979;1;1;165;317.1622;-112.294816;33.867473;0;0;1;N;123;123;5;140;140;317.1699;0;
33.867034059609;-112.294324021319;15:57:07.95;8/16/2011;8;1.06;318.83;11.0838024042108;0;310.4;321.483802404211;3.5;-0.8;38.6;.00;5.26;5.26;81;26;370.4;14.2;-1.8;D;840.6;2;66.675;1;1;165;317.057;-112.294816;33.867473;0;0;1;N;122;122;5;143;143;317.057;0;
33.8670374015792;-112.29432735043;15:57:08.96;8/16/2011;8;1.05;321.32;11.0838024042108;0;310.5;321.583802404211;3.7;-1;38.6;.00;5.17;5.17;81;26;370.4;14.2;-1.8;D;840.6;2;66.194;1;1;165;317.0326;-112.294816;33.867473;0;0;1;N;123;123;5;142;142;317.0326;0;
33.8670407401632;-112.29433233325;15:57:09.96;8/16/2011;8;1;315.94;11.0838024042108;0;312;323.083802404211;3.6;0.3;38.7;.00;5.14;5.14;81;26;370.4;14.2;-1.8;D;840.6;2;65.609;1;1;165;317.1056;-112.294816;33.867473;0;0;1;N;122;122;5;132;132;317.0023;0;
33.8670440671653;-112.294335685222;15:57:10.96;8/16/2011;8;0.98;317.83;11.0838024042108;0;311;322.083802404211;3.8;-1.2;38.7;.00;5.14;5.14;81;26;370.4;14.2;-1.8;D;840.6;2;65.127;1;1;165;317.0836;-112.294816;33.867473;0;0;1;N;123;123;5;142;142;317.0836;0;
33.8670474086837;-112.294338996741;15:57:11.97;8/16/2011;8;1.01;315.45;11.0838024042108;0;311.8;322.883802404211;3.8;-1;38.7;.00;5.05;5.05;81;26;370.4;14.2;-1.8;D;842.3;2;64.647;1;1;165;317.0578;-112.294816;33.867473;0;0;1;N;123;123;5;134;134;317.0466;0;
33.8670507343792;-112.294344009244;15:57:12.98;8/16/2011;8;0.98;317.3;11.0838024042108;0;311.4;322.483802404211;3.5;-0.5;38.6;.00;5.02;5.02;81;26;370.4;14.2;-1.8;D;842.3;2;64.061;1;1;165;317.1355;-112.294816;33.867473;0;0;1;N;122;122;5;140;140;317.1355;0;
33.8670541057003;-112.294347374976;15:57:13.99;8/16/2011;8;1.05;313.13;11.0838024042108;0;311.5;322.583802404211;3.2;-0.1;38.6;.00;5.02;5.02;81;26;370.4;14.2;-1.8;D;840.9;2;63.574;1;1;165;317.1109;-112.294816;33.867473;0;0;1;N;121;121;5;143;143;317.0959;0;
33.8670596473988;-112.294354309782;15:57:14.99;8/16/2011;8;1.04;313.23;11.0838024042108;0;311.9;322.983802404211;3.3;-0.6;38.6;.00;4.93;4.93;81;26;370.4;14.2;-1.8;D;840.9;2;62.687;1;1;165;317.1564;-112.294816;33.867473;0;0;1;N;121;121;5;143;143;317.1661;0;
33.8670607801309;-112.294355694947;15:57:15.99;8/16/2011;8;1.08;313.71;11.0838024042108;0;312.3;323.383802404211;3.7;-0.6;38.6;.00;4.93;4.93;81;26;370.3;14.2;-1.8;D;839.5;2;62.508;1;1;165;317.1638;-112.294816;33.867473;0;0;1;N;123;123;5;140;140;317.1137;0;
33.8670663385899;-112.294362602214;15:57:16.99;8/16/2011;8;1.1;315.76;11.0838024042108;0;313.1;324.183802404211;4;-0.8;38.6;.00;4.93;4.93;81;26;370.3;14.2;-1.8;D;839.5;2;61.621;1;1;165;317.2079;-112.294816;33.867473;0;0;1;N;124;124;5;138;138;317.2197;0;
33.8670696902654;-112.2943675726;15:57:17.00;8/16/2011;8;1.09;315.77;11.0838024042108;0;314;325.083802404211;3.9;-0.4;38.6;.00;4.90;4.90;81;26;370.3;14.2;-1.8;D;838.6;2;61.036;1;1;165;317.2863;-112.294816;33.867473;0;0;1;N;124;124;5;136;136;317.2863;0;
33.8670866666667;-112.294383333333;15:57:22.81;8/16/2011;8;1;321.29;11.0838024042108;0;313.7;324.783802404211;3.6;-2.1;38.6;.00;4.81;4.81;81;26;370.3;14.2;-1.8;D;831.3;2;61.036;1;1;165;317.2863;-112.294816;33.867473;0;0;1;N;124;124;5;136;136;317.2863;0;
33.8670915279712;-112.294387928659;15:57:23.82;8/16/2011;8;1.02;318.75;11.0838024042108;0;314;325.083802404211;3.9;-1.3;38.6;.00;4.75;4.75;80;26;370.3;14.2;-1.8;D;836.2;2;57.977;1;1;165;317.0232;-112.294816;33.867473;0;0;1;N;124;124;5;128;128;317.0232;0;
33.8670948690934;-112.29439290687;15:57:24.82;8/16/2011;8;1.01;321.51;11.0838024042108;0;315.3;326.383802404211;3.5;-0.5;38.6;.00;4.81;4.81;80;26;370.3;14.2;-1.8;D;836.2;2;57.392;1;1;165;317.1061;-112.294816;33.867473;0;0;1;N;122;122;5;130;130;317.1061;0;
33.8670966666667;-112.294395;15:57:25.83;8/16/2011;8;1.05;317.9;11.0838024042108;0;314.7;325.783802404211;3.5;0.2;38.6;.00;4.75;4.75;80;26;370.3;14.2;-1.8;D;835.2;2;56.883;1;1;165;317.0316;-112.294816;33.867473;0;0;1;N;121;121;5;134;134;317.0316;0;
33.8671015262104;-112.294399591524;15:57:26.83;8/16/2011;8;1.05;318.32;11.0838024042108;0;314.7;325.783802404211;3.6;0.9;38.7;.00;4.72;4.72;80;26;370.3;14.2;-1.8;D;835.2;2;56.430;1;1;165;317.0536;-112.294816;33.867473;0;0;1;N;122;122;5;134;134;317.0536;0;
33.8671065177034;-112.294404615123;15:57:27.83;8/16/2011;8;1.08;317.33;11.0838024042108;0;314.7;325.783802404211;3.5;0.7;38.6;.00;4.69;4.69;80;26;370.3;14.2;-1.8;D;835.2;2;55.708;1;1;165;317.0139;-112.294816;33.867473;0;0;1;N;122;122;5;134;134;317.0139;0;
33.8671083333333;-112.294406666667;15:57:28.84;8/16/2011;8;1.07;317.28;11.0838024042108;0;315.4;326.483802404211;3.5;-0.4;38.7;.00;4.69;4.69;80;26;370.2;14.2;-1.8;D;833.8;2;55.194;1;1;165;316.9346;-112.294816;33.867473;0;0;1;N;121;121;5;133;133;316.9346;0;
33.8671427613636;-112.294439590639;15:57:33.87;8/16/2011;8;1;321.62;11.0838024042108;0;315.1;326.183802404211;3.8;-1.9;38.6;.00;4.50;4.50;80;26;370.2;14.2;-1.8;D;833.8;2;50.559;1;1;165;316.5769;-112.294816;33.867473;0;0;1;N;123;123;5;134;134;317.0732;0;
33.8671323477463;-112.294431789432;15:57:34.87;8/16/2011;8;0.99;321.4;11.0838024042108;0;316.6;327.683802404211;3.6;-2;38.6;.00;4.47;4.47;80;26;370.2;14.2;-1.8;D;833.7;2;51.896;1;1;165;316.8781;-112.294816;33.867473;0;0;1;N;122;122;5;116;116;316.8996;0;
33.867135769151;-112.294433950958;15:57:35.87;8/16/2011;8;1.01;321.3;11.0838024042108;0;315.1;326.183802404211;3.6;-1.1;38.6;.00;4.47;4.47;80;26;370.2;14.2;-1.8;D;833.7;2;51.482;1;1;165;316.7508;-112.294816;33.867473;0;0;1;N;122;122;5;134;134;316.8002;0;
33.8671391030254;-112.294437282396;15:57:36.87;8/16/2011;8;1;323.65;11.0838024042108;0;315.2;326.283802404211;4;-0.7;38.7;.00;4.41;4.41;80;26;370.2;14.2;-1.8;D;832.3;2;51.001;1;1;165;316.7172;-112.294816;33.867473;0;0;1;N;124;124;5;129;129;316.6731;0;
