Latitude;Longitude;Time;Date;Number of Sats;GPS Speed (Kn);GPS True Heading;GPS Magnetic Variation;HDOP;C Magnetic Heading;C True Heading;Pitch Angle;Roll Angle;C Inside Temp (c);DFS Depth (m);DTB Height (m);Total Water Column (m);Batt Percent;Power Watts;Watt-Hours;Batt Volts;Batt Ampers;Batt State;Time to Empty;Current Step;Dist To Next (m);Next Speed (kn);Vehicle Speed (kn);Motor Speed CMD;Next Heading;Next Long;Next Lat;Next Depth (m);Depth Goal (m);Vehicle State;Error State;Fin Pitch R;Fin Pitch L;Pitch Goal;Fin Yaw T;Fin Yaw B;Yaw Goal;Fin Roll;
33.8662483333333;-112.294205;16:16:36.27;8/16/2011;9;0.2;335.87;11.0837907782978;0;2.4;13.4837907782979;5.1;-1.8;36.8;.00;.94;.94;78;19;362.0;14.1;-1.3;D;1078.7;0;60.436;1;1;128;22.07507;-112.293959;33.866752;0;0;1;N;128;128;5;172;172;22.07507;0;
33.8662517911185;-112.29420445535;16:16:37.27;8/16/2011;9;0.22;328.06;11.0837907782978;0;2.9;13.9837907782979;5.1;-1.1;36.8;.02;.94;.96;78;19;362.0;14.1;-1.3;D;1078.7;0;60.061;1;1;128;22.16846;-112.293959;33.866752;0;0;1;N;128;128;5;169;169;22.07507;0;
33.8662517811032;-112.294204420553;16:16:38.27;8/16/2011;9;0.18;328.81;11.0837907782978;0;4.8;15.8837907782979;5.5;1.6;36.8;.03;.94;.97;78;19;361.9;14.1;-1.4;D;1076.4;0;60.061;1;1;165;22.16522;-112.293959;33.866752;0;0;1;N;131;131;5;195;195;22.16522;0;
33.8662544628626;-112.294205204778;16:16:39.28;8/16/2011;9;0.17;339.22;11.0837907782978;0;4.8;15.8837907782979;4.3;-1.7;36.8;.02;.97;.99;78;19;361.9;14.1;-1.4;D;1076.4;0;59.812;1;1;165;22.33722;-112.293959;33.866752;0;0;1;N;126;126;5;191;191;22.32605;0;
33.8662543358789;-112.294205742049;16:16:40.29;8/16/2011;9;0.26;356.68;11.0837907782978;0;5.3;16.3837907782979;4.6;0.2;36.9;.01;.97;.99;78;22;361.9;14.1;-1.6;D;928;0;59.844;1;1;165;22.37602;-112.293959;33.866752;0;0;1;N;126;126;5;192;192;22.36559;0;
33.8662559862985;-112.294205673069;16:16:41.29;8/16/2011;9;0.41;3;11.0837907782978;0;6.6;17.6837907782978;4.2;0;36.9;.01;1.00;1.01;78;25;361.9;14.1;-1.7;D;840.6;0;59.672;1;1;165;22.43744;-112.293959;33.866752;0;0;1;N;125;125;5;174;174;22.42914;0;
33.8662576167012;-112.294205556872;16:16:42.30;8/16/2011;9;0.55;6.5;11.0837907782978;0;8.7;19.7837907782978;4.1;-0.1;36.8;.01;1.03;1.04;78;25;361.9;14.1;-1.7;D;840.6;0;59.500;1;1;165;22.49453;-112.293959;33.866752;0;0;1;N;124;124;5;161;161;22.4897;0;
33.8662627102031;-112.29420300772;16:16:43.30;8/16/2011;9;0.69;10.27;11.0837907782978;0;10.1;21.1837907782978;3.9;-0.2;36.8;.00;1.09;1.10;78;25;361.9;14.1;-1.8;D;834;0;58.887;1;1;165;22.49378;-112.293959;33.866752;0;0;1;N;124;124;5;138;138;22.49134;0;
33.8662651892526;-112.294203294841;16:16:44.30;8/16/2011;9;0.75;13.06;11.0837907782978;0;11.3;22.3837907782979;4;-0.1;36.8;.00;1.10;1.10;78;25;361.9;14.1;-1.8;D;834;0;58.643;1;1;165;22.62075;-112.293959;33.866752;0;0;1;N;124;124;5;130;130;22.62075;0;
33.8662667110365;-112.294202471829;16:16:45.30;8/16/2011;9;0.84;12.46;11.0837907782978;0;12.3;23.3837907782979;3.7;0.4;36.8;.00;1.13;1.13;78;25;361.9;14.1;-1.8;D;831.7;0;58.457;1;1;165;22.6158;-112.293959;33.866752;0;0;1;N;123;123;5;117;117;22.6158;0;
33.8662708969162;-112.294202038318;16:16:46.32;8/16/2011;9;0.88;15.36;11.0837907782978;0;11.9;22.9837907782979;3.5;-0.9;36.9;.00;1.22;1.22;78;25;361.9;14.1;-1.8;D;831.7;0;58.012;1;1;165;22.75608;-112.293959;33.866752;0;0;1;N;122;122;5;124;124;22.75632;0;
33.8662759509373;-112.294200382517;16:16:47.33;8/16/2011;9;0.93;17.12;11.0837907782978;0;10.5;21.5837907782979;3.6;0;36.9;.00;1.28;1.28;78;25;361.9;14.1;-1.8;D;830.7;0;57.435;1;1;165;22.8323;-112.293959;33.866752;0;0;1;N;122;122;5;143;143;22.8299;0;
33.8662809871315;-112.294197990694;16:16:48.34;8/16/2011;9;0.97;17.4;11.0837907782978;0;9.1;20.1837907782978;3.4;0;36.9;.00;1.28;1.28;78;25;361.9;14.1;-1.8;D;830.7;0;56.833;1;1;165;22.84618;-112.293959;33.866752;0;0;1;N;122;122;5;160;160;22.84122;0;
33.8662860285595;-112.294196442192;16:16:49.34;8/16/2011;9;0.93;18.63;11.0837907782978;0;9.3;20.3837907782979;3.5;0.9;36.9;.00;1.37;1.37;78;25;361.9;14.1;-1.8;D;829.8;0;56.261;1;1;165;22.93366;-112.293959;33.866752;0;0;1;N;122;122;5;159;159;22.92882;0;
33.86629;-112.294195;16:16:50.34;8/16/2011;9;0.95;14.44;11.0837907782978;0;10.5;21.5837907782979;3.5;0.7;36.8;.00;1.46;1.46;78;25;361.9;14.1;-1.8;D;829.8;0;55.993;1;1;165;22.98839;-112.293959;33.866752;0;0;1;N;122;122;5;145;145;22.98839;0;
33.8662944319125;-112.294192877107;16:16:51.34;8/16/2011;9;0.95;14.44;11.0837907782978;0;11.6;22.6837907782978;3.5;-0.8;36.9;.00;1.46;1.46;78;25;361.9;14.1;-1.8;D;831.6;0;55.272;1;1;165;22.99685;-112.293959;33.866752;0;0;1;N;122;122;5;131;131;22.99685;0;
33.8662967040428;-112.294192450093;16:16:52.34;8/16/2011;9;0.97;15.79;11.0837907782978;0;12.6;23.6837907782978;3.4;-1.3;36.9;.00;1.49;1.49;78;25;361.9;14.1;-1.8;D;831.6;0;55.024;1;1;165;23.06184;-112.293959;33.866752;0;0;1;N;122;122;5;128;128;23.06184;0;
33.8663033333333;-112.29419;16:16:53.34;8/16/2011;9;0.98;21.09;11.0837907782978;0;13.1;24.1837907782978;3.4;-1.5;36.8;.00;1.52;1.52;78;25;361.9;14.1;-1.8;D;831.6;0;54.684;1;1;165;23.20853;-112.293959;33.866752;0;0;1;N;122;122;5;115;115;23.20853;0;
33.8663075648616;-112.29418771992;16:16:54.34;8/16/2011;9;0.98;21.09;11.0837907782978;0;12.5;23.5837907782979;3.3;-0.5;36.8;.00;1.58;1.58;78;25;361.9;14.1;-1.8;D;831.6;0;53.742;1;1;165;23.1378;-112.293959;33.866752;0;0;1;N;121;121;5;121;121;23.1378;0;
33.866310054685;-112.294187500281;16:16:55.34;8/16/2011;9;0.98;20.77;11.0837907782978;0;10.1;21.1837907782978;3.3;0.9;36.9;.00;1.58;1.58;78;25;361.8;14.1;-1.8;D;830.1;0;53.480;1;1;165;23.23437;-112.293959;33.866752;0;0;1;N;121;121;5;153;153;23.23437;0;
33.866313441368;-112.294185859219;16:16:56.37;8/16/2011;9;1;22.21;11.0837907782978;0;9.6;20.6837907782978;3.6;1.3;36.9;.00;1.61;1.61;78;25;361.8;14.1;-1.8;D;827.8;0;53.074;1;1;165;23.24444;-112.293959;33.866752;0;0;1;N;122;122;5;159;159;23.24444;0;
33.8663192623877;-112.294183800361;16:16:57.38;8/16/2011;9;1;17.05;11.0837907782978;0;10;21.0837907782979;3.5;0.9;36.9;.00;1.67;1.67;78;25;361.8;14.1;-1.8;D;827.8;0;52.404;1;1;165;23.33277;-112.293959;33.866752;0;0;1;N;122;122;5;155;155;23.33277;0;
33.8663233794912;-112.294182489816;16:16:58.38;8/16/2011;9;1.02;15.05;11.0837907782978;0;12;23.0837907782979;3.5;-0.4;36.9;.00;1.70;1.70;78;25;361.8;14.1;-1.8;D;827.8;0;51.936;1;1;165;23.41023;-112.293959;33.866752;0;0;1;N;122;122;5;141;141;23.41023;0;
33.86633;-112.29418;16:16:59.38;8/16/2011;9;1.03;16.12;11.0837907782978;0;13.1;24.1837907782978;3.5;-0.3;36.9;.00;1.70;1.70;78;25;361.8;14.1;-1.8;D;827.8;0;51.524;1;1;165;23.40931;-112.293959;33.866752;0;0;1;N;122;122;5;117;117;23.40931;0;
33.8663342744902;-112.294177713876;16:17:00.38;8/16/2011;9;1.03;16.12;11.0837907782978;0;12.9;23.9837907782979;3.4;0.1;36.9;.00;1.70;1.70;78;25;361.8;14.1;-1.8;D;827.8;0;50.649;1;1;165;23.49696;-112.293959;33.866752;0;0;1;N;122;122;5;123;123;23.49696;0;
33.8663367046177;-112.29417745181;16:17:01.38;8/16/2011;9;1.04;17.25;11.0837907782978;0;11.7;22.7837907782978;3.4;-0.8;36.8;.00;1.83;1.83;78;25;361.8;14.1;-1.8;D;827.8;0;50.392;1;1;165;23.59423;-112.293959;33.866752;0;0;1;N;122;122;5;137;137;23.59423;0;
33.8663417023746;-112.294175792691;16:17:02.39;8/16/2011;9;1.03;19.93;11.0837907782978;0;11.8;22.8837907782979;3.4;0.1;36.9;.00;1.98;1.98;78;25;361.8;14.1;-1.8;D;827.8;0;49.821;1;1;165;23.6886;-112.293959;33.866752;0;0;1;N;122;122;5;137;137;23.6886;0;
33.8663450508652;-112.294174156284;16:17:03.39;8/16/2011;9;1.04;20.81;11.0837907782978;0;11.3;22.3837907782979;3.6;-0.2;36.9;.00;2.07;2.07;78;25;361.8;14.1;-1.8;D;827.8;0;49.419;1;1;165;23.70162;-112.293959;33.866752;0;0;1;N;122;122;5;147;147;23.70162;0;
33.8663533333333;-112.294171666667;16:17:04.39;8/16/2011;9;0.99;20.22;11.0837907782978;0;11.6;22.6837907782978;3.4;2;36.9;.00;2.07;2.07;78;25;361.8;14.1;-1.8;D;827.8;0;48.849;1;1;165;23.79975;-112.293959;33.866752;0;0;1;N;122;122;5;141;141;23.79975;0;
33.8663566666667;-112.29417;16:17:05.39;8/16/2011;9;1;18.18;11.0837907782978;0;11.1;22.1837907782978;3.5;0.7;36.8;.00;2.13;2.13;78;25;361.8;14.1;-1.8;D;827.8;0;47.969;1;1;165;23.90651;-112.293959;33.866752;0;0;1;N;122;122;5;149;149;23.90651;0;
33.8663609618465;-112.294167771034;16:17:06.40;8/16/2011;9;1;18.18;11.0837907782978;0;12.7;23.7837907782978;3.4;0.1;36.8;.00;2.16;2.16;78;25;361.8;14.1;-1.8;D;826.8;0;47.563;1;1;165;23.90805;-112.293959;33.866752;0;0;1;N;122;122;5;129;129;23.90805;0;
33.8663666666667;-112.294165;16:17:07.40;8/16/2011;9;1.01;20.69;11.0837907782978;0;12.9;23.9837907782979;3.4;-0.3;36.9;.00;2.25;2.25;78;25;361.8;14.1;-1.8;D;826.8;0;47.204;1;1;165;24.00306;-112.293959;33.866752;0;0;1;N;122;122;5;127;127;24.00306;0;
33.86637;-112.294163333333;16:17:08.40;8/16/2011;9;1.02;19.25;11.0837907782978;0;13.1;24.1837907782978;3.4;0;36.9;.00;2.31;2.31;78;25;361.7;14.1;-1.8;D;823.1;0;46.359;1;1;165;23.93228;-112.293959;33.866752;0;0;1;N;122;122;5;120;120;23.93228;0;
33.866375;-112.294161666667;16:17:09.41;8/16/2011;9;1.01;19.9;11.0837907782978;0;12.9;23.9837907782979;3.4;0.8;36.8;.00;2.40;2.40;78;26;361.7;14.1;-1.8;D;819.6;0;45.963;1;1;165;23.94843;-112.293959;33.866752;0;0;1;N;122;122;5;127;127;23.94843;0;
33.86638;-112.29416;16:17:10.41;8/16/2011;9;1.07;18.76;11.0837907782978;0;11.6;22.6837907782978;3.4;0.3;36.9;.00;2.47;2.47;78;26;361.7;14.1;-1.8;D;819.6;0;45.387;1;1;165;24.06313;-112.293959;33.866752;0;0;1;N;122;122;5;144;144;24.06313;0;
33.8663842720503;-112.29415784476;16:17:11.41;8/16/2011;9;1.07;18.76;11.0837907782978;0;11.4;22.4837907782979;3.3;1.2;36.9;.00;2.56;2.56;78;26;361.7;14.1;-1.8;D;819.6;0;44.822;1;1;165;24.17982;-112.293959;33.866752;0;0;1;N;121;121;5;148;148;24.17982;0;
33.8663875656663;-112.29415704149;16:17:12.41;8/16/2011;9;1.09;17.83;11.0837907782978;0;11.7;22.7837907782978;3.3;0.2;36.9;.00;2.68;2.68;78;26;361.7;14.1;-1.8;D;819.6;0;44.458;1;1;165;24.28596;-112.293959;33.866752;0;0;1;N;121;121;5;146;146;24.28596;0;
33.8663908722908;-112.294155302068;16:17:13.41;8/16/2011;9;1.08;17.27;11.0837907782978;0;13.7;24.7837907782978;3.5;0;36.9;.00;2.77;2.77;78;25;361.7;14.1;-1.8;D;820.4;0;44.057;1;1;165;24.29225;-112.293959;33.866752;0;0;1;N;122;122;5;121;121;24.29316;0;
33.8663958536701;-112.294153585754;16:17:14.41;8/16/2011;9;1.07;16.55;11.0837907782978;0;13.7;24.7837907782978;3.3;-0.3;36.9;.00;2.77;2.77;78;25;361.7;14.1;-1.8;D;820.4;0;43.487;1;1;165;24.40218;-112.293959;33.866752;0;0;1;N;121;121;5;122;122;24.40218;0;
33.8664008686458;-112.294151957782;16:17:15.41;8/16/2011;9;1.07;18.8;11.0837907782978;0;13;24.0837907782979;3.3;0.4;36.8;.00;2.92;2.92;78;26;361.7;14.1;-1.8;D;819;0;42.917;1;1;165;24.52701;-112.293959;33.866752;0;0;1;N;121;121;5;133;133;24.52701;0;
33.866405923551;-112.294150317495;16:17:16.41;8/16/2011;9;1.07;21.76;11.0837907782978;0;12;23.0837907782979;3.5;0.7;36.8;.00;2.95;2.95;78;26;361.7;14.1;-1.8;D;819;0;42.343;1;1;165;24.6563;-112.293959;33.866752;0;0;1;N;122;122;5;139;139;24.6563;0;
33.86641090112;-112.294148715494;16:17:17.43;8/16/2011;9;0.99;23.33;11.0837907782978;0;11.5;22.5837907782979;3.3;0.6;36.8;.00;3.01;3.01;78;26;361.7;14.1;-1.8;D;819;0;41.778;1;1;165;24.78861;-112.293959;33.866752;0;0;1;N;122;122;5;158;158;24.78861;0;
33.8664142486613;-112.294145281402;16:17:18.43;8/16/2011;9;0.99;24.46;11.0837907782978;0;13.2;24.2837907782978;3.6;0;36.9;.00;3.07;3.07;78;26;361.7;14.1;-1.8;D;819;0;41.307;1;1;165;24.60581;-112.293959;33.866752;0;0;1;N;122;122;5;131;131;24.60476;0;
33.8664192432732;-112.294143600551;16:17:19.43;8/16/2011;9;0.95;20.57;11.0837907782978;0;14.1;25.1837907782978;3.4;-0.6;36.8;.00;3.26;3.26;78;26;361.7;14.1;-1.8;D;818.1;0;40.738;1;1;165;24.7326;-112.293959;33.866752;0;0;1;N;122;122;5;128;128;24.7326;0;
33.866422519664;-112.294141917368;16:17:20.43;8/16/2011;9;0.99;22.27;11.0837907782978;0;14.2;25.2837907782978;3.3;0.5;36.8;.00;3.26;3.26;78;26;361.7;14.1;-1.8;D;818.1;0;40.342;1;1;165;24.74861;-112.293959;33.866752;0;0;1;N;121;121;5;120;120;24.74971;0;
33.8664275798256;-112.294140275828;16:17:21.43;8/16/2011;9;0.97;20.03;11.0837907782978;0;13.2;24.2837907782978;3.5;0.3;36.7;.00;3.35;3.35;78;26;361.6;14.1;-1.8;D;818;0;39.768;1;1;165;24.88967;-112.293959;33.866752;0;0;1;N;122;122;5;135;135;24.88967;0;
33.8664341799158;-112.294136217292;16:17:22.43;8/16/2011;9;1.08;21.48;11.0837907782978;0;12.8;23.8837907782979;3.5;0.8;36.9;.00;3.41;3.41;78;26;361.6;14.1;-1.8;D;818;0;38.944;1;1;165;24.84401;-112.293959;33.866752;0;0;1;N;122;122;5;139;139;24.84401;0;
33.8664385140198;-112.294133943026;16:17:23.43;8/16/2011;9;1.08;21.48;11.0837907782978;0;12.3;23.3837907782979;3.5;0.8;36.9;.00;3.59;3.59;78;26;361.6;14.1;-1.8;D;817.1;0;38.419;1;1;165;24.8618;-112.293959;33.866752;0;0;1;N;122;122;5;145;145;24.85758;0;
33.8664425086062;-112.294132871594;16:17:24.44;8/16/2011;9;1.06;18.75;11.0837907782978;0;13.5;24.5837907782979;3.5;-0.2;36.9;.00;3.62;3.62;78;26;361.6;14.1;-1.8;D;817;0;37.974;1;1;165;25.00814;-112.293959;33.866752;0;0;1;N;122;122;5;132;132;25.00814;0;
33.8664475086062;-112.294131204927;16:17:25.44;8/16/2011;9;1.08;17.89;11.0837907782978;0;13.5;24.5837907782979;3.5;0.1;36.9;.00;3.65;3.65;78;26;361.6;14.1;-1.8;D;817;0;37.405;1;1;165;25.15455;-112.293959;33.866752;0;0;1;N;122;122;5;134;134;25.15455;0;
33.8664517830311;-112.294128905859;16:17:26.45;8/16/2011;9;1.08;17.89;11.0837907782978;0;12.9;23.9837907782979;3.4;0.8;36.9;.00;3.71;3.71;78;26;361.6;14.1;-1.8;D;817;0;36.885;1;1;165;25.16991;-112.293959;33.866752;0;0;1;N;122;122;5;142;142;25.16991;0;
33.8664575046147;-112.294127861;16:17:27.46;8/16/2011;9;1.07;21.65;11.0837907782978;0;14.1;25.1837907782978;3.4;1;36.9;.00;3.80;3.81;78;26;361.6;14.1;-1.8;D;817;0;36.269;1;1;165;25.45944;-112.293959;33.866752;0;0;1;N;122;122;5;129;129;25.3087;0;
33.8664625114595;-112.294124532414;16:17:28.46;8/16/2011;9;0.97;23.19;11.0837907782978;0;13.7;24.7837907782978;3.5;0;36.8;.00;4.08;4.08;78;26;361.6;14.1;-1.8;D;817;0;35.634;1;1;165;25.39809;-112.293959;33.866752;0;0;1;N;122;122;5;135;135;25.39809;0;
33.8664667480484;-112.294122148267;16:17:29.46;8/16/2011;9;0.97;23.19;11.0837907782978;0;14.4;25.4837907782979;3.5;0.7;36.9;.00;4.08;4.08;78;26;361.6;14.1;-1.8;D;817;0;35.114;1;1;165;25.40332;-112.293959;33.866752;0;0;1;N;122;122;5;126;126;25.40325;0;
33.8664675177542;-112.294121914108;16:17:30.46;8/16/2011;9;0.98;24.64;11.0837907782978;0;14.3;25.3837907782979;3.5;0.7;36.8;.00;4.20;4.20;78;26;361.6;14.1;-1.8;D;817.8;0;35.027;1;1;165;25.43143;-112.293959;33.866752;0;0;1;N;122;122;5;128;128;25.43099;0;
33.8664708530852;-112.294120252737;16:17:31.46;8/16/2011;9;0.99;24.77;11.0837907782978;0;13.4;24.4837907782979;3.5;0.3;36.9;.00;4.32;4.32;78;26;361.6;14.1;-1.8;D;817.8;0;34.626;1;1;165;25.46574;-112.293959;33.866752;0;0;1;N;122;122;5;139;139;25.46253;0;
33.8664758646982;-112.294116949364;16:17:32.47;8/16/2011;9;0.98;23.33;11.0837907782978;0;13.6;24.6837907782978;3.5;1.4;36.8;.00;4.41;4.41;78;26;361.6;14.1;-1.8;D;816.9;0;33.992;1;1;165;25.40547;-112.293959;33.866752;0;0;1;N;122;122;5;141;141;25.40177;0;
33.8664825065778;-112.294114532982;16:17:33.49;8/16/2011;9;0.98;24.03;11.0837907782978;0;14.5;25.5837907782979;3.5;-0.6;36.9;.00;4.53;4.53;78;26;361.6;14.1;-1.8;D;816.9;0;33.230;1;1;165;25.60432;-112.293959;33.866752;0;0;1;N;122;122;5;136;136;25.60432;0;
33.8664866851846;-112.294112130494;16:17:34.50;8/16/2011;9;0.98;24.03;11.0837907782978;0;15.1;26.1837907782978;3.4;0.1;36.9;.00;4.69;4.69;78;26;361.5;14.1;-1.8;D;816.8;0;32.715;1;1;165;25.60564;-112.293959;33.866752;0;0;1;N;121;121;5;117;117;25.60713;0;
33.866487508032;-112.294111889577;16:17:35.50;8/16/2011;9;1.06;21.31;11.0837907782978;0;14.7;25.7837907782978;3.5;0.6;36.8;.00;4.75;4.75;78;26;361.5;14.1;-1.8;D;816.8;0;32.623;1;1;165;25.63986;-112.293959;33.866752;0;0;1;N;122;122;5;126;126;25.63968;0;
33.8664925128807;-112.294108568505;16:17:36.50;8/16/2011;9;1.04;22.04;11.0837907782978;0;14.5;25.5837907782979;3.5;0.7;36.8;.00;4.90;4.90;78;26;361.5;14.1;-1.8;D;816.8;0;31.988;1;1;165;25.57605;-112.293959;33.866752;0;0;1;N;122;122;5;127;127;25.57574;0;
33.8664975219599;-112.294106924635;16:17:37.52;8/16/2011;9;1.04;22.81;11.0837907782978;0;13.7;24.7837907782978;3.4;0.6;36.9;.00;5.05;5.05;78;26;361.5;14.1;-1.8;D;816.8;0;31.421;1;1;165;25.76488;-112.293959;33.866752;0;0;1;N;122;122;5;129;129;25.76134;0;
33.8665025255288;-112.294105266671;16:17:38.52;8/16/2011;9;1.06;23.31;11.0837907782978;0;13.4;24.4837907782979;3.4;0.3;36.9;.00;5.17;5.17;78;26;361.5;14.1;-1.8;D;816.8;0;30.853;1;1;165;25.95798;-112.293959;33.866752;0;0;1;N;122;122;5;145;145;25.95798;0;
33.8665058636235;-112.294101945671;16:17:39.52;8/16/2011;9;1.04;22.25;11.0837907782978;0;13.4;24.4837907782979;3.4;1.8;36.9;.00;5.39;5.39;78;26;361.5;14.1;-1.8;D;816.8;0;30.385;1;1;165;25.74448;-112.293959;33.866752;0;0;1;N;122;122;5;138;138;25.73987;0;
33.8665141745082;-112.294099536549;16:17:40.54;8/16/2011;9;0.97;23.49;11.0837907782978;0;13.6;24.6837907782978;3.6;1.7;36.8;.00;5.57;5.57;78;26;361.5;14.1;-1.8;D;816.8;0;29.457;1;1;165;26.13554;-112.293959;33.866752;0;0;1;N;122;122;5;145;145;26.13554;0;
33.8665183992899;-112.294097240931;16:17:41.54;8/16/2011;9;0.97;23.49;11.0837907782978;0;13.6;24.6837907782978;3.5;-0.2;36.8;.00;5.69;5.69;78;26;361.5;14.1;-1.8;D;816.8;0;28.942;1;1;165;26.16851;-112.293959;33.866752;0;0;1;N;122;122;5;146;146;26.16851;0;
33.866522497523;-112.294096176926;16:17:42.55;8/16/2011;9;0.97;21.97;11.0837907782978;0;15.4;26.4837907782979;3.5;0.7;36.8;.00;5.84;5.84;78;26;361.5;14.1;-1.8;D;816.8;0;28.490;1;1;165;26.39537;-112.293959;33.866752;0;0;1;N;122;122;5;130;130;26.39537;0;
33.8665266891317;-112.294093682119;16:17:43.56;8/16/2011;9;0.97;21.97;11.0837907782978;0;15.2;26.2837907782978;3.6;0.5;36.9;.00;5.84;5.84;78;26;361.5;14.1;-1.8;D;817.6;0;27.970;1;1;165;26.39716;-112.293959;33.866752;0;0;1;N;122;122;5;128;128;26.39636;0;
33.8665308229469;-112.294091157842;16:17:44.57;8/16/2011;9;0.98;23.26;11.0837907782978;0;15.9;26.9837907782979;3.4;0.7;36.9;.00;5.84;5.84;78;26;361.5;14.1;-1.8;D;817.6;0;27.455;1;1;165;26.38797;-112.293959;33.866752;0;0;1;N;122;122;5;116;116;26.38797;0;
33.8665341635627;-112.29408950847;16:17:45.57;8/16/2011;9;0.98;24.34;11.0837907782978;0;14.9;25.9837907782979;3.4;0.4;36.8;.00;5.78;5.78;78;26;361.5;14.1;-1.8;D;818.5;0;27.054;1;1;165;26.4487;-112.293959;33.866752;0;0;1;N;122;122;5;133;133;26.4487;0;
33.8665383971854;-112.294087102445;16:17:46.57;8/16/2011;9;0.98;24.34;11.0837907782978;0;14.4;25.4837907782979;3.4;1.4;36.9;.00;5.66;5.66;78;26;361.5;14.1;-1.8;D;818.5;0;26.534;1;1;165;26.47198;-112.293959;33.866752;0;0;1;N;122;122;5;144;144;26.46622;0;
33.8665433520624;-112.294084079948;16:17:47.58;8/16/2011;9;1.05;21.34;11.0837907782978;0;13.5;24.5837907782979;3.4;1.5;36.9;.00;5.60;5.60;78;26;361.5;14.1;-1.8;D;818.5;0;25.916;1;1;165;26.46267;-112.293959;33.866752;0;0;1;N;122;122;5;150;150;26.46267;0;
33.8665483487155;-112.294082391619;16:17:48.58;8/16/2011;9;1.06;19.63;11.0837907782978;0;14.1;25.1837907782978;3.4;1.1;36.9;.00;5.60;5.60;78;26;361.5;14.1;-1.8;D;818.5;0;25.349;1;1;165;26.70686;-112.293959;33.866752;0;0;1;N;122;122;5;150;150;26.70026;0;
33.8665525266643;-112.294079987305;16:17:49.59;8/16/2011;9;1.06;19.63;11.0837907782978;0;14.7;25.7837907782978;3.4;1.2;36.9;.00;5.57;5.57;78;26;361.4;14.1;-1.8;D;816.7;0;24.835;1;1;165;26.73104;-112.293959;33.866752;0;0;1;N;122;122;5;139;139;26.73104;0;
33.8665583334208;-112.294079019705;16:17:50.59;8/16/2011;9;1.04;21.47;11.0837907782978;0;15.1;26.1837907782978;3.4;-0.2;36.9;.00;5.51;5.51;78;26;361.4;14.1;-1.8;D;816.7;0;24.219;1;1;165;27.22937;-112.293959;33.866752;0;0;1;N;122;122;5;140;140;27.22448;0;
33.8665624617373;-112.294076495552;16:17:51.59;8/16/2011;9;1.04;21.47;11.0837907782978;0;16.8;27.8837907782979;3.4;0.6;36.9;.00;5.42;5.42;78;26;361.4;14.1;-1.8;D;818.4;0;23.704;1;1;165;27.23617;-112.293959;33.866752;0;0;1;N;122;122;5;119;119;27.23849;0;
33.8665633213199;-112.294076222052;16:17:52.60;8/16/2011;9;1.07;21.76;11.0837907782978;0;17;28.0837907782979;3.4;-0.1;36.9;.00;5.39;5.39;78;25;361.4;14.1;-1.8;D;819.3;0;23.608;1;1;165;27.28785;-112.293959;33.866752;0;0;1;N;122;122;5;117;117;27.29099;0;
33.8665716379629;-112.294072285645;16:17:53.60;8/16/2011;9;0.96;27.95;11.0837907782978;0;17.2;28.2837907782978;3.4;0.3;36.9;.00;5.39;5.39;78;25;361.4;14.1;-1.8;D;819.3;0;22.619;1;1;165;27.54362;-112.293959;33.866752;0;0;1;N;122;122;5;118;118;27.54647;0;
33.8665757227302;-112.294069661799;16:17:54.60;8/16/2011;9;0.96;27.95;11.0837907782978;0;16.2;27.2837907782978;3.4;0.6;36.8;.00;5.39;5.39;78;25;361.4;14.1;-1.8;D;819.2;0;22.104;1;1;165;27.53127;-112.293959;33.866752;0;0;1;N;122;122;5;130;130;27.53127;0;
33.866576638326;-112.294067984928;16:17:55.60;8/16/2011;9;0.97;28.58;11.0837907782978;0;15.1;26.1837907782978;3.6;1.1;36.9;.00;5.36;5.36;78;25;361.4;14.1;-1.8;D;819.2;0;21.943;1;1;165;27.29566;-112.293959;33.866752;0;0;1;N;122;122;5;141;141;27.29566;0;
33.8665800230036;-112.294066315516;16:17:56.60;8/16/2011;9;0.97;29.2;11.0837907782978;0;15.6;26.6837907782978;3.4;0.2;36.8;.00;5.36;5.36;78;25;361.4;14.1;-1.8;D;820.6;0;21.537;1;1;165;27.39041;-112.293959;33.866752;0;0;1;N;122;122;5;136;136;27.38655;0;
33.8665858515711;-112.294062474329;16:17:57.61;8/16/2011;9;0.97;25.19;11.0837907782978;0;15.6;26.6837907782978;3.4;0.8;36.8;.00;5.36;5.36;78;25;361.4;14.1;-1.8;D;820.6;0;20.799;1;1;165;27.34432;-112.293959;33.866752;0;0;1;N;122;122;5;135;135;27.34053;0;
33.8665883166179;-112.29406134596;16:17:58.61;8/16/2011;9;0.97;23.45;11.0837907782978;0;15.4;26.4837907782979;3.5;0.5;36.8;.00;5.36;5.36;78;25;361.4;14.1;-1.8;D;820.5;0;20.508;1;1;165;27.43754;-112.293959;33.866752;0;0;1;N;122;122;5;139;139;27.43225;0;
33.8665933236111;-112.294059683774;16:17:59.62;8/16/2011;9;1.04;22.18;11.0837907782978;0;15.8;26.8837907782979;3.6;1.6;36.8;.00;5.36;5.36;78;25;361.4;14.1;-1.8;D;820.5;0;19.943;1;1;165;27.78326;-112.293959;33.866752;0;0;1;N;122;122;5;138;138;27.77807;0;
33.8665999872995;-112.294057334669;16:18:00.62;8/16/2011;9;1.04;21.04;11.0837907782978;0;15.7;26.7837907782978;3.4;0.9;36.9;.00;5.36;5.36;78;26;361.4;14.1;-1.8;D;816.9;0;19.187;1;1;165;28.24164;-112.293959;33.866752;0;0;1;N;122;122;5;145;145;28.2333;0;
33.8666041027777;-112.294054768219;16:18:01.62;8/16/2011;9;1.04;21.04;11.0837907782978;0;16.5;27.5837907782979;3.4;0.5;36.9;.00;5.39;5.39;78;26;361.4;14.1;-1.8;D;816.9;0;18.672;1;1;165;28.26555;-112.293959;33.866752;0;0;1;N;122;122;5;135;135;28.26119;0;
33.8666083000332;-112.294052275355;16:18:02.62;8/16/2011;9;1.02;24.14;11.0837907782978;0;17.3;28.3837907782979;3.4;0.7;36.8;.00;5.42;5.42;78;26;361.3;14.1;-1.8;D;818.2;0;18.152;1;1;165;28.3233;-112.293959;33.866752;0;0;1;N;122;122;5;126;126;28.32302;0;
33.8666116050505;-112.294050139323;16:18:03.62;8/16/2011;9;1.02;24.14;11.0837907782978;0;16.6;27.6837907782979;3.6;0.3;36.9;.00;5.42;5.42;78;26;361.3;14.1;-1.8;D;818.2;0;17.735;1;1;165;28.32573;-112.293959;33.866752;0;0;1;N;122;122;5;131;131;28.32573;0;
33.8666141258684;-112.294050106874;16:18:04.63;8/16/2011;9;1.05;25.58;11.0837907782978;0;16.6;27.6837907782979;3.5;2;36.9;.00;5.42;5.42;78;26;361.3;14.1;-1.8;D;817.7;0;17.487;1;1;165;28.75286;-112.293959;33.866752;0;0;1;N;122;122;5;140;140;28.75286;0;
33.8666191339684;-112.294046792542;16:18:05.63;8/16/2011;9;1.03;26.54;11.0837907782978;0;16.5;27.5837907782979;3.4;0.8;36.9;.00;5.42;5.42;78;26;361.3;14.1;-1.8;D;817.7;0;16.852;1;1;165;28.75149;-112.293959;33.866752;0;0;1;N;122;122;5;142;142;28.75149;0;
33.8666225417188;-112.294045067664;16:18:06.63;8/16/2011;9;1.06;26.32;11.0837907782978;0;16.5;27.5837907782979;3.4;1.5;36.9;.00;5.48;5.48;78;25;361.3;14.1;-1.8;D;819;0;16.443;1;1;165;28.90008;-112.293959;33.866752;0;0;1;N;122;122;5;143;143;28.90008;0;
33.8666308190366;-112.294041149362;16:18:07.63;8/16/2011;9;1.05;25.29;11.0837907782978;0;16.2;27.2837907782978;3.6;1.1;36.8;.00;5.54;5.54;78;25;361.3;14.1;-1.8;D;819.4;0;15.463;1;1;165;29.37473;-112.293959;33.866752;0;0;1;N;122;122;5;153;153;29.37473;0;
33.8666341539601;-112.294037819403;16:18:08.63;8/16/2011;9;1.07;21.39;11.0837907782978;0;16.5;27.5837907782979;3.5;1;36.8;.00;5.48;5.48;78;25;361.3;14.1;-1.8;D;819.4;0;14.989;1;1;165;29.04589;-112.293959;33.866752;0;0;1;N;122;122;5;145;145;29.04589;0;
33.8666382768936;-112.294035152866;16:18:09.63;8/16/2011;9;1.07;21.39;11.0837907782978;0;18.2;29.2837907782978;3.5;0.5;36.8;.00;5.42;5.42;78;25;361.3;14.1;-1.8;D;819.4;0;14.469;1;1;165;29.07498;-112.293959;33.866752;0;0;1;N;122;122;5;124;124;29.07498;0;
33.8666415524857;-112.294034460336;16:18:10.63;8/16/2011;9;1.04;22.02;11.0837907782978;0;19.6;30.6837907782979;3.3;0.2;36.8;.00;5.42;5.42;78;25;361.3;14.1;-1.8;D;819.4;0;14.120;1;1;165;29.56645;-112.293959;33.866752;0;0;1;N;121;121;5;109;109;29.56645;0;
33.8666457306498;-112.294033306067;16:18:11.63;8/16/2011;9;1;23.48;11.0837907782978;0;19.4;30.4837907782978;3.3;-0.7;36.8;.00;5.45;5.45;78;25;361.3;14.1;-1.8;D;819.3;0;13.664;1;1;165;30.13905;-112.293959;33.866752;0;0;1;N;121;121;5;125;125;30.13905;0;
33.8666490850213;-112.294031683029;16:18:12.64;8/16/2011;9;1.01;25.69;11.0837907782978;0;18.1;29.1837907782979;3.3;1.5;36.8;.00;5.54;5.54;78;25;361.3;14.1;-1.8;D;819.3;0;13.266;1;1;165;30.38818;-112.293959;33.866752;0;0;1;N;121;121;5;142;142;30.38818;0;
33.8666558107015;-112.294027786093;16:18:13.64;8/16/2011;9;0.99;29.04;11.0837907782978;0;18.4;29.4837907782978;3.6;2.3;36.9;.00;5.78;5.78;78;25;361.2;14.1;-1.8;D;819.8;0;12.440;1;1;165;30.70111;-112.293959;33.866752;0;0;1;N;122;122;5;143;143;30.70111;0;
33.8666598409098;-112.294025045615;16:18:14.64;8/16/2011;9;0.99;29.04;11.0837907782978;0;18.3;29.3837907782979;3.6;1.1;36.9;.00;5.78;5.78;78;25;361.2;14.1;-1.8;D;819.8;0;11.925;1;1;165;30.75512;-112.293959;33.866752;0;0;1;N;122;122;5;144;144;30.75512;0;
33.866663221815;-112.294022798519;16:18:15.64;8/16/2011;9;1;28.37;11.0837907782978;0;18.9;29.9837907782978;3.4;1.3;36.8;.00;5.78;5.78;78;25;361.2;14.1;-1.8;D;821.1;0;11.495;1;1;165;30.82465;-112.293959;33.866752;0;0;1;N;122;122;5;138;138;30.82465;0;
33.8666665416857;-112.294021105279;16:18:16.65;8/16/2011;9;1.02;27.67;11.0837907782978;0;19.3;30.3837907782979;3.6;1.7;36.9;.00;5.90;5.90;78;25;361.2;14.1;-1.8;D;821.1;0;11.099;1;1;165;31.1081;-112.293959;33.866752;0;0;1;N;122;122;5;136;136;31.1081;0;
33.866672464466;-112.294017770352;16:18:17.65;8/16/2011;9;0.96;30.83;11.0837907782978;0;19.5;30.5837907782979;3.6;1.5;36.9;.00;5.96;5.97;78;25;361.2;14.1;-1.8;D;821.1;0;10.376;1;1;165;31.53125;-112.293959;33.866752;0;0;1;N;122;122;5;139;139;31.53125;0;
33.8666757913334;-112.294014423598;16:18:18.65;8/16/2011;9;0.97;29.48;11.0837907782978;0;20.3;31.3837907782979;3.4;0.6;36.9;.00;6.00;6.00;78;25;361.2;14.1;-1.8;D;821.1;0;9.899;1;1;165;31.12656;-112.293959;33.866752;0;0;1;N;122;122;5;124;124;31.12656;0;
33.8666791634358;-112.294011059645;16:18:19.66;8/16/2011;9;0.97;30.3;11.0837907782978;0;20.3;31.3837907782979;3.3;0;36.8;.00;6.00;6.00;78;25;361.2;14.1;-1.8;D;821.1;0;9.418;1;1;165;30.68825;-112.293959;33.866752;0;0;1;N;121;121;5;118;118;30.68825;0;
33.8666841310588;-112.294009425776;16:18:20.66;8/16/2011;9;0.97;29.17;11.0837907782978;0;19.6;30.6837907782979;3.5;1.7;36.8;.00;6.09;6.09;78;25;361.2;14.1;-1.8;D;821.1;0;8.867;1;1;165;31.67164;-112.293959;33.866752;0;0;1;N;122;122;5;139;139;31.67164;0;
33.8666881158825;-112.294006589029;16:18:21.66;8/16/2011;9;0.97;29.17;11.0837907782978;0;18.8;29.8837907782979;3.5;1.2;36.8;.00;6.09;6.09;78;25;361.2;14.1;-1.8;D;819.2;0;8.353;1;1;165;31.73844;-112.293959;33.866752;0;0;1;N;122;122;5;144;144;31.73844;0;
33.8666898702895;-112.294004417269;16:18:22.66;8/16/2011;9;0.98;29.92;11.0837907782978;0;19;30.0837907782979;3.5;1;36.8;.00;6.09;6.09;78;26;361.2;14.1;-1.8;D;816.5;0;8.082;1;1;165;31.25698;-112.293959;33.866752;0;0;1;N;122;122;5;142;142;31.25698;0;
33.8666948447178;-112.294002710094;16:18:23.68;8/16/2011;9;1.03;26.96;11.0837907782978;0;20.8;31.8837907782979;3.5;1.5;36.9;.00;6.09;6.09;78;26;361.2;14.1;-1.8;D;816.5;0;7.529;1;1;165;32.41587;-112.293959;33.866752;0;0;1;N;122;122;5;134;134;32.41587;0;
33.8667007869392;-112.293999415466;16:18:24.69;8/16/2011;9;1.04;27.73;11.0837907782978;0;21;32.0837907782979;3.6;1;36.9;.00;6.09;6.09;78;26;361.2;14.1;-1.8;D;817.4;0;6.809;1;1;165;33.23565;-112.293959;33.866752;0;0;1;N;122;122;5;145;145;33.23565;0;
33.8667041177936;-112.293996077138;16:18:25.70;8/16/2011;9;1.03;27.39;11.0837907782978;0;21;32.0837907782979;3.5;1;36.8;.00;6.09;6.09;78;26;361.2;14.1;-1.8;D;817.4;0;6.330;1;1;165;32.73951;-112.293959;33.866752;0;0;1;N;122;122;5;138;138;32.73951;0;
33.8667081553956;-112.29399302613;16:18:26.70;8/16/2011;9;1.03;27.39;11.0837907782978;0;21.1;32.1837907782978;3.5;0.9;36.8;.00;6.09;6.09;78;25;361.2;14.1;-1.8;D;818.7;0;5.800;1;1;165;32.79741;-112.293959;33.866752;0;0;1;N;122;122;5;135;135;32.79741;0;
33.8667132255049;-112.293990458516;16:18:27.70;8/16/2011;9;1.06;30.96;11.0837907782978;0;21.8;32.8837907782979;3.6;1.5;36.8;.00;6.09;6.09;78;25;361.2;14.1;-1.8;D;818.7;0;5.199;1;1;165;33.96688;-112.293959;33.866752;0;0;1;N;122;122;5;141;141;33.96688;0;
33.8667182156652;-112.293987116661;16:18:28.70;8/16/2011;9;0.99;33.49;11.0837907782978;0;22.3;33.3837907782979;3.4;0.9;36.8;.00;6.09;6.09;78;25;361.1;14.1;-1.8;D;818.6;0;4.568;1;1;165;34.64596;-112.293959;33.866752;0;0;1;N;122;122;5;143;143;34.64596;0;
33.8667215501511;-112.293983775468;16:18:29.70;8/16/2011;9;0.98;33.95;11.0837907782978;0;22.4;33.4837907782978;3.5;1.5;36.8;.00;6.12;6.12;78;25;361.1;14.1;-1.8;D;818.6;0;4.087;1;1;165;34.04301;-112.293959;33.866752;0;0;1;N;122;122;5;136;136;34.04301;0;
33.8667248633406;-112.293980416279;16:18:30.70;8/16/2011;9;0.99;34.01;11.0837907782978;0;22.8;33.8837907782979;3.5;1.7;36.8;.00;6.15;6.15;78;25;361.1;14.1;-1.8;D;818.6;0;3.608;1;1;165;33.2369;-112.293959;33.866752;0;0;1;N;122;122;5;114;114;33.2369;0;
33.8667287610559;-112.293977299643;16:18:31.70;8/16/2011;9;0.99;34.01;11.0837907782978;0;22.7;33.7837907782978;3.4;-0.5;36.8;.00;6.15;6.15;78;25;361.1;14.1;-1.8;D;818.6;1;10.970;1;1;165;330.9453;-112.294035;33.866815;0;0;1;N;122;122;5;5;5;330.9453;0;
33.8667297803707;-112.293977582192;16:18:32.70;8/16/2011;9;0.99;33.94;11.0837907782978;0;20.3;31.3837907782979;2.8;-1.9;36.8;.00;6.15;6.15;78;26;361.1;14.1;-1.8;D;817.7;1;10.858;1;1;165;330.7752;-112.294035;33.866815;0;0;1;N;119;119;5;5;5;330.7752;0;
33.86673500174;-112.293974472055;16:18:33.71;8/16/2011;9;0.96;30.31;11.0837907782978;0;14.2;25.2837907782978;3.4;-1.2;36.9;.00;6.15;6.15;78;26;361.1;14.1;-1.8;D;817.7;1;10.505;1;1;165;327.8611;-112.294035;33.866815;0;0;1;N;122;122;5;5;5;327.8611;0;
33.8667384079941;-112.293971583704;16:18:34.72;8/16/2011;9;0.93;34.85;11.0837907782978;0;10.5;21.5837907782979;3.6;0.8;36.9;.01;6.15;6.15;78;26;361.1;14.1;-1.8;D;810.2;1;10.335;1;1;165;325.4916;-112.294035;33.866815;0;0;1;N;122;122;5;5;5;325.4916;0;
33.866741857968;-112.293970290884;16:18:35.72;8/16/2011;9;0.96;29.7;11.0837907782978;0;5.3;16.3837907782979;3.7;-0.9;36.9;.00;6.18;6.18;78;26;361.1;14.1;-1.8;D;810.2;1;10.092;1;1;165;323.6989;-112.294035;33.866815;0;0;1;N;123;123;5;5;5;323.6989;0;
33.8667469863704;-112.293967301413;16:18:36.72;8/16/2011;9;0.97;24.06;11.0837907782978;0;0.3;11.3837907782979;3.7;0;36.9;.00;6.27;6.27;78;26;361.1;14.1;-1.8;D;806.3;1;9.812;1;1;165;320.4266;-112.294035;33.866815;0;0;1;N;123;123;5;5;5;320.4266;0;
33.866753502602;-112.293966383412;16:18:37.73;8/16/2011;9;1;14.39;11.0837907782978;0;355.5;6.58379077829784;3.8;0;36.8;.00;6.33;6.33;78;26;361.1;14.1;-1.8;D;806.2;1;9.322;1;1;165;317.1862;-112.294035;33.866815;0;0;1;N;123;123;5;5;5;317.1862;0;
33.8667585220761;-112.293964963801;16:18:38.73;8/16/2011;9;1.02;12.57;11.0837907782978;0;349.3;0.38379077829785;3.8;0;36.9;.00;6.33;6.33;78;26;361.1;14.1;-1.8;D;806.2;1;9.014;1;1;165;314.1626;-112.294035;33.866815;0;0;1;N;123;123;5;7;7;314.1626;0;
33.8667618459826;-112.293963490644;16:18:39.73;8/16/2011;9;1.02;7.39;11.0837907782978;0;343.9;354.983790778298;3.9;0.5;36.9;.00;6.39;6.39;78;26;361.0;14.1;-1.8;D;806.1;1;8.862;1;1;165;311.8349;-112.294035;33.866815;0;0;1;N;124;124;5;15;15;311.8349;0;
33.8667668323042;-112.293963681959;16:18:40.75;8/16/2011;9;0.95;2.14;11.0837907782978;0;338.9;349.983790778298;3.9;0.9;36.9;.00;6.45;6.45;78;26;361.0;14.1;-1.8;D;806.1;1;8.489;1;1;165;309.1248;-112.294035;33.866815;0;0;1;N;124;124;5;21;21;309.1248;0;
33.8667713521319;-112.293964884816;16:18:41.75;8/16/2011;9;0.95;2.14;11.0837907782978;0;333.4;344.483790778298;3.8;0.6;36.8;.00;6.63;6.63;78;26;361.0;14.1;-1.8;D;802.7;1;8.091;1;1;165;306.8595;-112.294035;33.866815;0;0;1;N;123;123;5;27;27;306.8595;0;
33.8667735182413;-112.293964729291;16:18:42.75;8/16/2011;9;0.97;357.96;11.0837907782978;0;328.6;339.683790778298;3.8;0.9;36.8;.00;6.72;6.73;78;26;361.0;14.1;-1.8;D;802.7;1;7.960;1;1;165;305.4103;-112.294035;33.866815;0;0;1;N;123;123;5;34;34;305.4103;0;
33.86678002835;-112.293965905295;16:18:43.76;8/16/2011;9;0.97;346.19;11.0837907782978;0;323.1;334.183790778298;3.8;0.6;36.8;.00;7.03;7.03;78;26;361.0;14.1;-1.8;D;801.8;1;7.471;1;1;165;301.3649;-112.294035;33.866815;0;0;1;N;123;123;5;33;33;301.3649;0;
33.8667841291824;-112.293968485722;16:18:44.76;8/16/2011;9;0.97;346.19;11.0837907782978;0;319;330.083790778298;3.6;0.6;36.8;.00;7.09;7.09;78;26;361.0;14.1;-1.8;D;801.8;1;7.036;1;1;165;299.2034;-112.294035;33.866815;0;0;1;N;122;122;5;38;38;299.2034;0;
33.8667864796252;-112.293969015779;16:18:45.76;8/16/2011;9;0.97;335.07;11.0837907782978;0;315;326.083790778298;3.8;0.7;36.8;.00;7.03;7.03;78;26;361.0;14.1;-1.8;D;802.2;1;6.868;1;1;165;297.4992;-112.294035;33.866815;0;0;1;N;123;123;5;42;42;297.4992;0;
33.86679;-112.293973333333;16:18:46.77;8/16/2011;9;1.04;325.75;11.0837907782978;0;311.1;322.183790778298;3.8;0.4;36.8;.00;7.03;7.03;78;26;361.0;14.1;-1.8;D;802.2;1;6.411;1;1;165;296.0864;-112.294035;33.866815;0;0;1;N;123;123;5;47;47;296.0864;0;
33.8667935577676;-112.29397689632;16:18:47.77;8/16/2011;9;1.04;325.75;11.0837907782978;0;307;318.083790778298;3.7;1.7;36.9;.00;6.88;6.88;78;26;361.0;14.1;-1.8;D;801.8;1;5.871;1;1;165;293.9623;-112.294035;33.866815;0;0;1;N;123;123;5;53;53;293.9623;0;
33.8667976356573;-112.293979792313;16:18:48.77;8/16/2011;9;1.06;321.68;11.0837907782978;0;302.7;313.783790778298;3.7;0.9;36.9;.00;6.88;6.88;78;26;361.0;14.1;-1.8;D;801.8;1;5.451;1;1;165;290.7465;-112.294035;33.866815;0;0;1;N;123;123;5;54;54;290.7465;0;
33.866802882784;-112.29398668099;16:18:49.78;8/16/2011;9;1.07;313.52;11.0837907782978;0;299.3;310.383790778298;3.6;2;36.9;.00;7.03;7.03;78;26;361.0;14.1;-1.8;D;801.7;1;4.661;1;1;165;286.8052;-112.294035;33.866815;0;0;1;N;122;122;5;52;52;286.8052;0;
33.8668057666094;-112.293991026665;16:18:50.78;8/16/2011;9;1.07;313.52;11.0837907782978;0;295.4;306.483790778298;3.5;2;36.8;.00;6.85;6.85;78;26;361.0;14.1;-1.8;D;801.7;1;4.189;1;1;165;284.1916;-112.294035;33.866815;0;0;1;N;122;122;5;56;56;284.1916;0;
33.8668070836698;-112.293993674671;16:18:51.78;8/16/2011;9;1.05;314.96;11.0837907782978;0;291.7;302.783790778298;3.8;2.1;36.8;.00;6.82;6.82;78;26;361.0;14.1;-1.8;D;801.7;2;63.574;1;1;165;313.2743;-112.294495;33.867199;0;0;1;N;123;123;5;154;154;313.2743;0;
33.8668103146617;-112.293997089205;16:18:52.78;8/16/2011;9;1.04;311.74;11.0837907782978;0;291;302.083790778298;3.7;3.6;36.8;.00;7.14;7.14;78;26;361.0;14.1;-1.8;D;797.4;2;63.098;1;1;165;313.233;-112.294495;33.867199;0;0;1;N;123;123;5;156;156;313.233;0;
33.8668143316892;-112.294005202275;16:18:53.79;8/16/2011;9;1.02;300.3;11.0837907782978;0;291.9;302.983790778298;3.6;2.6;36.8;.00;7.00;7.00;78;26;361.0;14.1;-1.8;D;797.4;2;62.247;1;1;165;313.4058;-112.294495;33.867199;0;0;1;N;122;122;5;154;154;313.4058;0;
33.866817732609;-112.294010221994;16:18:54.79;8/16/2011;9;1;298.67;11.0837907782978;0;293.1;304.183790778298;3.6;1.5;36.9;.00;7.00;7.00;78;26;361.0;14.1;-1.8;D;799.5;2;61.650;1;1;165;313.4464;-112.294495;33.867199;0;0;1;N;122;122;5;151;151;313.4464;0;
33.8668194132905;-112.294015136054;16:18:55.79;8/16/2011;9;1.01;299.48;11.0837907782978;0;294.9;305.983790778298;3.7;1.9;36.9;.00;7.00;7.00;78;26;361.0;14.1;-1.8;D;799.5;2;61.193;1;1;165;313.6115;-112.294495;33.867199;0;0;1;N;123;123;5;148;148;313.6115;0;
33.8668221633414;-112.294019613445;16:18:56.79;8/16/2011;9;1.01;299.48;11.0837907782978;0;295.9;306.983790778298;3.6;2.4;36.8;.00;6.97;6.97;78;26;360.9;14.1;-1.8;D;804.6;2;60.682;1;1;165;313.6717;-112.294495;33.867199;0;0;1;N;122;122;5;145;145;313.6717;0;
33.8668222804847;-112.29402183757;16:18:57.79;8/16/2011;9;1.07;295.93;11.0837907782978;0;297.2;308.283790778298;3.3;1.9;36.8;.00;7.03;7.03;78;26;360.9;14.1;-1.8;D;804.6;2;60.525;1;1;165;313.797;-112.294495;33.867199;0;0;1;N;122;122;5;159;159;313.7879;0;
33.8668256899219;-112.294026771552;16:18:58.79;8/16/2011;9;1.06;298.22;11.0837907782978;0;298.7;309.783790778298;3.3;1.3;36.8;.00;7.30;7.30;78;26;360.9;14.1;-1.8;D;806.7;2;59.934;1;1;165;313.8368;-112.294495;33.867199;0;0;1;N;121;121;5;150;150;313.8368;0;
33.8668274755271;-112.294033382147;16:18:59.80;8/16/2011;9;1.12;301.87;11.0837907782978;0;300.6;311.683790778298;3.6;0.8;36.8;.00;8.27;8.27;78;26;360.9;14.1;-1.8;D;806.7;2;59.357;1;1;165;314.1066;-112.294495;33.867199;0;0;1;N;122;122;5;144;144;314.1066;0;
33.8668314595141;-112.294039100693;16:19:00.82;8/16/2011;9;1.11;302.36;11.0837907782978;0;302.2;313.283790778298;3.6;0.3;36.8;.00;8.31;8.31;78;26;360.9;14.1;-1.8;D;806.7;2;58.669;1;1;165;314.1548;-112.294495;33.867199;0;0;1;N;123;123;5;139;139;314.1548;0;
33.8668333333333;-112.294045;16:19:01.82;8/16/2011;9;1.1;306.17;11.0837907782978;0;303.1;314.183790778298;3.7;1.7;36.7;.00;8.28;8.28;78;26;360.9;14.1;-1.8;D;806.7;2;58.079;1;1;165;314.1996;-112.294495;33.867199;0;0;1;N;123;123;5;135;135;314.1996;0;
33.8668379619413;-112.29405158649;16:19:02.82;8/16/2011;9;1.04;312.14;11.0837907782978;0;303.5;314.583790778298;3.8;1.5;36.7;.00;8.28;8.28;78;26;360.9;14.1;-1.8;D;808;2;57.339;1;1;165;314.4389;-112.294495;33.867199;0;0;1;N;122;122;5;134;134;314.4389;0;
33.8668413078224;-112.294056579632;16:19:03.82;8/16/2011;9;1.05;314.75;11.0837907782978;0;303.6;314.683790778298;3.7;1.9;36.8;.00;8.34;8.34;78;26;360.9;14.1;-1.8;D;808;2;56.750;1;1;165;314.4966;-112.294495;33.867199;0;0;1;N;122;122;5;132;132;314.4966;0;
33.8668446243116;-112.294059925644;16:19:04.82;8/16/2011;9;0.99;313.81;11.0837907782978;0;303.1;314.183790778298;3.2;2.6;36.8;.00;8.34;8.34;78;26;360.9;14.1;-1.8;D;807.9;2;56.271;1;1;165;314.4492;-112.294495;33.867199;0;0;1;N;120;120;5;135;135;314.4492;0;
33.8668479395859;-112.294063286891;16:19:05.82;8/16/2011;9;0.99;314.09;11.0837907782978;0;302;313.083790778298;3.2;0.9;36.8;.00;8.34;8.34;78;26;360.9;14.1;-1.8;D;807.9;2;55.791;1;1;165;314.4021;-112.294495;33.867199;0;0;1;N;121;121;5;141;141;314.4021;0;
33.86685;-112.294066666667;16:19:06.84;8/16/2011;9;0.99;313.34;11.0837907782978;0;302.4;313.483790778298;3.2;1.4;36.8;.00;8.34;8.34;78;26;360.8;14.1;-1.8;D;810.5;2;55.272;1;1;165;314.4046;-112.294495;33.867199;0;0;1;N;121;121;5;138;138;314.4046;0;
33.8668532215148;-112.294070668007;16:19:07.84;8/16/2011;9;0.99;313.34;11.0837907782978;0;302.4;313.483790778298;3.5;1.2;36.8;.00;8.34;8.34;78;26;360.8;14.1;-1.8;D;811.8;2;54.893;1;1;165;314.4619;-112.294495;33.867199;0;0;1;N;122;122;5;139;139;314.4619;0;
33.8668565370255;-112.294074012637;16:19:08.85;8/16/2011;9;0.98;312.22;11.0837907782978;0;302.4;313.483790778298;3.8;1.1;36.8;.00;8.37;8.37;78;26;360.8;14.1;-1.8;D;811.8;2;54.415;1;1;165;314.4126;-112.294495;33.867199;0;0;1;N;123;123;5;138;138;314.4126;0;
33.8668599369743;-112.294079090164;16:19:09.85;8/16/2011;9;1;311.8;11.0837907782978;0;303.1;314.183790778298;4;1.1;36.8;.00;8.34;8.34;78;26;360.8;14.1;-1.8;D;813.1;2;53.815;1;1;165;314.4743;-112.294495;33.867199;0;0;1;N;124;124;5;134;134;314.4743;0;
33.8668615560021;-112.294082333303;16:19:10.85;8/16/2011;9;0.98;312.26;11.0837907782978;0;303.5;314.583790778298;3.8;1.5;36.8;.00;8.34;8.34;78;26;360.8;14.1;-1.8;D;813.1;2;53.475;1;1;165;314.5615;-112.294495;33.867199;0;0;1;N;123;123;5;132;132;314.5615;0;
33.8668648953955;-112.294087318427;16:19:11.85;8/16/2011;9;1.06;312.76;11.0837907782978;0;302.8;313.883790778298;3.5;2.2;36.8;.00;8.34;8.34;78;26;360.8;14.1;-1.8;D;814;2;52.887;1;1;165;314.6247;-112.294495;33.867199;0;0;1;N;122;122;5;137;137;314.6247;0;
33.8668682231258;-112.294092331089;16:19:12.85;8/16/2011;9;1.08;315.03;11.0837907782978;0;302.7;313.783790778298;3.3;2.5;36.8;.00;8.34;8.34;78;26;360.8;14.1;-1.8;D;814;2;52.298;1;1;165;314.6924;-112.294495;33.867199;0;0;1;N;121;121;5;139;139;314.6924;0;
33.8668716007487;-112.294095682141;16:19:13.86;8/16/2011;9;1.07;315.76;11.0837907782978;0;302.8;313.883790778298;3.5;2.3;36.8;.00;8.28;8.28;78;26;360.8;14.1;-1.8;D;813.9;2;51.814;1;1;165;314.6378;-112.294495;33.867199;0;0;1;N;122;122;5;137;137;314.6365;0;
33.8668786219641;-112.294104039363;16:19:14.86;8/16/2011;9;1.11;311.84;11.0837907782978;0;303.7;314.783790778298;3.5;2.1;36.8;.00;8.25;8.25;78;26;360.8;14.1;-1.8;D;813.9;2;50.716;1;1;165;314.6226;-112.294495;33.867199;0;0;1;N;122;122;5;131;131;314.6226;0;
33.8668819721953;-112.294107351821;16:19:15.86;8/16/2011;9;1.1;312.09;11.0837907782978;0;304.2;315.283790778298;3.5;2.6;36.8;.00;8.24;8.25;78;26;360.8;14.1;-1.8;D;813.8;2;50.237;1;1;165;314.5652;-112.294495;33.867199;0;0;1;N;122;122;5;127;127;314.5652;0;
33.8668839921828;-112.294110787498;16:19:16.86;8/16/2011;9;1.05;311.35;11.0837907782978;0;304;315.083790778298;3.6;0.8;36.8;.00;8.24;8.24;78;26;360.8;14.1;-1.8;D;813.8;2;49.853;1;1;165;314.6371;-112.294495;33.867199;0;0;1;N;122;122;5;129;129;314.6371;0;
33.866888657073;-112.294117409308;16:19:17.86;8/16/2011;9;1.04;311.67;11.0837907782978;0;303.4;314.483790778298;3.4;1.2;36.8;.00;8.25;8.25;78;26;360.8;14.1;-1.8;D;815.1;2;49.054;1;1;165;314.7078;-112.294495;33.867199;0;0;1;N;122;122;5;130;130;314.7078;0;
33.8668902637243;-112.294122394874;16:19:18.86;8/16/2011;9;1.06;311.08;11.0837907782978;0;303.2;314.283790778298;3.6;2.2;36.8;.00;8.22;8.22;78;26;360.8;14.1;-1.8;D;815.1;2;48.601;1;1;165;314.9398;-112.294495;33.867199;0;0;1;N;122;122;5;137;137;314.9398;0;
33.8668936142374;-112.294125716035;16:19:19.86;8/16/2011;9;1.04;311.12;11.0837907782978;0;303.6;314.683790778298;3.1;2.7;36.8;.00;8.04;8.04;78;26;360.8;14.1;-1.8;D;815.1;2;48.121;1;1;165;314.8837;-112.294495;33.867199;0;0;1;N;120;120;5;134;134;314.8837;0;
33.8668969281312;-112.294129597565;16:19:20.86;8/16/2011;9;1.04;311.12;11.0837907782978;0;304;315.083790778298;3.2;0.4;36.8;.00;8.03;8.03;78;26;360.8;14.1;-1.8;D;815.1;2;47.607;1;1;165;314.8739;-112.294495;33.867199;0;0;1;N;122;122;5;129;129;314.8753;0;
33.8668983066721;-112.294132233596;16:19:21.86;8/16/2011;9;1.07;309.3;11.0837907782978;0;304.2;315.283790778298;3.9;0.3;36.8;.00;7.97;7.98;78;26;360.8;14.1;-1.8;D;816.5;2;47.326;1;1;165;314.9503;-112.294495;33.867199;0;0;1;N;124;124;5;130;130;314.9503;0;
33.8669016472308;-112.294137296669;16:19:22.87;8/16/2011;9;1.07;307.9;11.0837907782978;0;304.3;315.383790778298;4;2.1;36.8;.00;7.88;7.89;78;26;360.7;14.1;-1.8;D;816.4;2;46.733;1;1;165;315.0329;-112.294495;33.867199;0;0;1;N;122;122;5;130;130;315.034;0;
33.866905;-112.294143333333;16:19:23.88;8/16/2011;9;1.11;311.93;11.0837907782978;0;303.8;314.883790778298;3.9;1.3;36.8;.00;7.76;7.76;78;26;360.7;14.1;-1.8;D;816.4;2;46.150;1;1;165;315.1148;-112.294495;33.867199;0;0;1;N;124;124;5;134;134;315.1148;0;
33.8669083333333;-112.294148333333;16:19:24.89;8/16/2011;9;1.11;312.12;11.0837907782978;0;304.2;315.283790778298;3.3;3.9;36.8;.00;7.73;7.73;78;26;360.7;14.1;-1.8;D;816.3;2;45.562;1;1;165;315.2006;-112.294495;33.867199;0;0;1;N;121;121;5;132;132;315.2006;0;
33.8669116666667;-112.294153333333;16:19:25.90;8/16/2011;9;1.11;313.56;11.0837907782978;0;303.6;314.683790778298;3.4;2.6;36.7;.00;7.73;7.73;78;26;360.7;14.1;-1.8;D;816.3;2;44.973;1;1;165;315.2822;-112.294495;33.867199;0;0;1;N;122;122;5;137;137;315.2822;0;
33.866915;-112.294156666667;16:19:26.90;8/16/2011;9;1.07;314.82;11.0837907782978;0;303.2;314.283790778298;3.9;0.4;36.8;.00;7.64;7.64;78;26;360.7;14.1;-1.8;D;816.3;2;44.380;1;1;165;315.366;-112.294495;33.867199;0;0;1;N;124;124;5;140;140;315.366;0;
33.8669203030754;-112.294164015555;16:19:27.90;8/16/2011;9;1.08;313.81;11.0837907782978;0;304.3;315.383790778298;3.8;2.7;36.8;.00;7.60;7.60;78;26;360.7;14.1;-1.8;D;816.3;2;43.523;1;1;165;315.4006;-112.294495;33.867199;0;0;1;N;122;122;5;135;135;315.4006;0;
33.866923653284;-112.294169002856;16:19:28.91;8/16/2011;9;1.01;315.09;11.0837907782978;0;305;316.083790778298;3.5;2.9;36.8;.00;7.55;7.55;78;26;360.7;14.1;-1.8;D;815;2;42.935;1;1;165;315.4891;-112.294495;33.867199;0;0;1;N;122;122;5;130;130;315.4891;0;
33.8669270284616;-112.294172363567;16:19:29.91;8/16/2011;9;1.01;314.45;11.0837907782978;0;304.5;315.583790778298;3.4;1.4;36.9;.00;7.52;7.52;78;26;360.7;14.1;-1.8;D;815;2;42.449;1;1;165;315.4326;-112.294495;33.867199;0;0;1;N;122;122;5;131;131;315.4334;0;
33.866930322916;-112.294177331505;16:19:30.92;8/16/2011;9;1.01;313.46;11.0837907782978;0;304.3;315.383790778298;3.4;2.3;36.8;.00;7.40;7.40;78;26;360.7;14.1;-1.8;D;815;2;41.867;1;1;165;315.528;-112.294495;33.867199;0;0;1;N;122;122;5;135;135;315.528;0;
33.8669316666667;-112.294178333333;16:19:31.92;8/16/2011;9;1.02;316.16;11.0837907782978;0;304.5;315.583790778298;3.2;2.3;36.8;.00;7.40;7.40;78;26;360.7;14.1;-1.8;D;815;2;41.347;1;1;165;315.5189;-112.294495;33.867199;0;0;1;N;121;121;5;133;133;315.5189;0;
33.866935;-112.294183333333;16:19:32.93;8/16/2011;9;1.04;309.62;11.0837907782978;0;304.5;315.583790778298;3.3;1.6;36.8;.00;7.30;7.30;78;26;360.7;14.1;-1.8;D;816.3;2;41.181;1;1;165;315.4614;-112.294495;33.867199;0;0;1;N;121;121;5;133;133;315.4614;0;
33.866938667322;-112.294188983949;16:19:33.93;8/16/2011;9;1.05;309.96;11.0837907782978;0;304.4;315.483790778298;3.6;2;36.8;.00;7.24;7.24;78;26;360.7;14.1;-1.8;D;816.3;2;40.451;1;1;165;315.6948;-112.294495;33.867199;0;0;1;N;122;122;5;136;136;315.6948;0;
33.8669420186406;-112.294193961685;16:19:34.93;8/16/2011;9;1.11;312.11;11.0837907782978;0;305.1;316.183790778298;3.8;1;36.9;.00;7.24;7.24;78;26;360.7;14.1;-1.8;D;816.3;2;39.863;1;1;165;315.7934;-112.294495;33.867199;0;0;1;N;123;123;5;131;131;315.7934;0;
33.8669453454829;-112.294198970292;16:19:35.93;8/16/2011;9;1.11;310.56;11.0837907782978;0;305.8;316.883790778298;3.5;0.5;36.8;.00;7.12;7.12;78;25;360.6;14.1;-1.8;D;817.1;2;39.276;1;1;165;315.9007;-112.294495;33.867199;0;0;1;N;122;122;5;127;127;315.9007;0;
33.8669473402338;-112.294202427999;16:19:36.94;8/16/2011;9;1.11;310.68;11.0837907782978;0;305.6;316.683790778298;3.6;0.4;36.8;.00;7.00;7.00;78;25;360.6;14.1;-1.8;D;817.1;2;38.894;1;1;165;316.011;-112.294495;33.867199;0;0;1;N;122;122;5;130;130;315.9041;0;
33.8669520587331;-112.294209071192;16:19:37.95;8/16/2011;9;1.1;312.67;11.0837907782978;0;304.3;315.383790778298;4.1;-0.7;36.8;.00;6.88;6.88;78;25;360.6;14.1;-1.8;D;818.3;2;38.091;1;1;165;316.1267;-112.294495;33.867199;0;0;1;N;124;124;5;141;141;316.1267;0;
33.8669552950263;-112.294214025119;16:19:38.95;8/16/2011;9;1.07;315.68;11.0837907782978;0;305;316.083790778298;4;2.3;36.8;.00;6.82;6.82;78;25;360.6;14.1;-1.8;D;818.3;2;37.515;1;1;165;316.2494;-112.294495;33.867199;0;0;1;N;124;124;5;138;138;316.2494;0;
33.8669586149251;-112.294217383535;16:19:39.97;8/16/2011;9;1.08;318.05;11.0837907782978;0;304.2;315.283790778298;3.7;3.8;36.8;.00;6.61;6.61;78;25;360.6;14.1;-1.8;D;818.3;2;37.034;1;1;165;316.2009;-112.294495;33.867199;0;0;1;N;123;123;5;142;142;316.2009;0;
33.8669636450323;-112.294222345443;16:19:40.97;8/16/2011;9;1.08;316.58;11.0837907782978;0;303.9;314.983790778298;3.4;2.3;36.8;.00;6.60;6.61;78;25;360.6;14.1;-1.8;D;818.3;2;36.313;1;1;165;316.1118;-112.294495;33.867199;0;0;1;N;122;122;5;144;144;316.1118;0;
33.8669656668981;-112.294224111209;16:19:41.97;8/16/2011;9;1.06;314.18;11.0837907782978;0;304.5;315.583790778298;3.3;2;36.8;.00;6.42;6.42;78;26;360.6;14.1;-1.8;D;814.8;2;36.038;1;1;165;316.0509;-112.294495;33.867199;0;0;1;N;122;122;5;139;139;316.1167;0;
33.8669703969673;-112.294230651963;16:19:42.98;8/16/2011;9;1.06;316.12;11.0837907782978;0;305.3;316.383790778298;3.4;1.1;36.8;.00;6.42;6.42;78;26;360.6;14.1;-1.8;D;814.8;2;35.240;1;1;165;316.1643;-112.294495;33.867199;0;0;1;N;122;122;5;135;135;316.1643;0;
33.8669737053941;-112.294233936387;16:19:43.98;8/16/2011;9;1.07;316.3;11.0837907782978;0;305.9;316.983790778298;3.4;1.1;36.8;.00;6.30;6.30;78;26;360.6;14.1;-1.8;D;816.1;2;34.765;1;1;165;316.1049;-112.294495;33.867199;0;0;1;N;122;122;5;131;131;316.1078;0;
33.8669756692598;-112.294237433782;16:19:44.98;8/16/2011;9;1.11;313.31;11.0837907782978;0;305.2;316.283790778298;3.4;2.6;36.8;.00;6.30;6.30;78;26;360.6;14.1;-1.8;D;816.1;2;34.384;1;1;165;316.2403;-112.294495;33.867199;0;0;1;N;122;122;5;135;135;316.0916;0;
33.8669790036385;-112.2942424323;16:19:45.98;8/16/2011;9;1.11;314.94;11.0837907782978;0;305.3;316.383790778298;3.5;2.7;36.8;.00;6.21;6.21;78;26;360.6;14.1;-1.8;D;814.7;2;33.797;1;1;165;316.3707;-112.294495;33.867199;0;0;1;N;122;122;5;136;136;316.2276;0;
33.8669823347383;-112.2942474351;16:19:46.98;8/16/2011;9;1.08;311.08;11.0837907782978;0;305.1;316.183790778298;3.5;1.3;36.8;.00;6.09;6.09;78;26;360.6;14.1;-1.8;D;814.7;2;33.210;1;1;165;316.5065;-112.294495;33.867199;0;0;1;N;122;122;5;139;139;316.3636;0;
33.8669870149346;-112.294253960126;16:19:47.98;8/16/2011;9;1.09;310.63;11.0837907782978;0;305.5;316.583790778298;3.1;3.1;36.8;.00;6.06;6.06;78;26;360.6;14.1;-1.8;D;814.7;2;32.418;1;1;165;316.6459;-112.294495;33.867199;0;0;1;N;120;120;5;139;139;316.6459;0;
33.8669903448456;-112.294257305624;16:19:48.98;8/16/2011;9;1.08;312.56;11.0837907782978;0;305.2;316.283790778298;2.9;2.4;36.8;.00;5.99;6.00;78;26;360.6;14.1;-1.8;D;814.7;2;31.937;1;1;165;316.5928;-112.294495;33.867199;0;0;1;N;120;120;5;141;141;316.5928;0;
33.8669937060192;-112.294262347823;16:19:50.01;8/16/2011;9;1.08;310.87;11.0837907782978;0;304.6;315.683790778298;3.1;1;36.8;.00;5.96;5.96;78;26;360.5;14.1;-1.8;D;814.6;2;31.345;1;1;165;316.7416;-112.294495;33.867199;0;0;1;N;120;120;5;146;146;316.7416;0;
33.8669970311091;-112.294267277121;16:19:51.01;8/16/2011;9;1.06;314.98;11.0837907782978;0;305.4;316.483790778298;3.4;0.6;36.7;.00;5.99;5.99;78;26;360.5;14.1;-1.8;D;814.2;2;30.764;1;1;165;316.887;-112.294495;33.867199;0;0;1;N;124;124;5;140;140;316.887;0;
33.8669990494;-112.294269120355;16:19:52.01;8/16/2011;9;1.04;315.85;11.0837907782978;0;306.2;317.283790778298;4.1;0.5;36.8;.00;5.87;5.88;78;26;360.5;14.1;-1.8;D;814.2;2;30.484;1;1;165;316.8322;-112.294495;33.867199;0;0;1;N;124;124;5;136;136;316.892;0;
33.8670043899416;-112.294276440396;16:19:53.01;8/16/2011;9;1.03;315.32;11.0837907782978;0;306.3;317.383790778298;3.9;0.4;36.8;.00;5.85;5.85;78;26;360.5;14.1;-1.8;D;815.5;2;29.589;1;1;165;317;-112.294495;33.867199;0;0;1;N;124;124;5;137;137;317;0;
33.867007709713;-112.294279702729;16:19:54.01;8/16/2011;9;1.03;315.65;11.0837907782978;0;305.9;316.983790778298;4;0;36.8;.00;5.85;5.85;78;26;360.5;14.1;-1.8;D;815.5;2;29.113;1;1;165;316.9381;-112.294495;33.867199;0;0;1;N;123;123;5;136;136;316.9408;0;
33.8670090124171;-112.294282420924;16:19:55.01;8/16/2011;9;1.01;316.09;11.0837907782978;0;306.1;317.183790778298;3.8;2;36.9;.00;5.72;5.73;78;26;360.5;14.1;-1.8;D;815.5;2;28.836;1;1;165;317.1059;-112.294495;33.867199;0;0;1;N;122;122;5;139;139;317.1059;0;
33.8670123425909;-112.294285758672;16:19:56.02;8/16/2011;9;1.02;315.01;11.0837907782978;0;306.2;317.283790778298;3.2;2.7;36.8;.00;5.69;5.69;78;26;360.5;14.1;-1.8;D;815.5;2;28.355;1;1;165;317.0528;-112.294495;33.867199;0;0;1;N;122;122;5;141;141;317.0528;0;
33.8670147349394;-112.294291534586;16:19:57.02;8/16/2011;9;1.06;310.59;11.0837907782978;0;306.1;317.183790778298;3;0.8;36.8;.00;5.63;5.63;78;25;360.5;14.1;-1.8;D;816.7;2;27.798;1;1;165;317.4838;-112.294495;33.867199;0;0;1;N;121;121;5;145;145;317.4832;0;
33.8670173508979;-112.294295746779;16:19:58.02;8/16/2011;9;1.05;309.29;11.0837907782978;0;306.6;317.683790778298;4;0.6;36.8;.00;5.60;5.60;78;25;360.5;14.1;-1.8;D;816.7;2;27.321;1;1;165;317.6727;-112.294495;33.867199;0;0;1;N;124;124;5;144;144;317.6727;0;
33.8670206918742;-112.294299070125;16:19:59.02;8/16/2011;9;1.1;312.57;11.0837907782978;0;307.3;318.383790778298;3.9;-0.6;36.8;.00;5.63;5.63;78;25;360.5;14.1;-1.8;D;818;2;26.839;1;1;165;317.623;-112.294495;33.867199;0;0;1;N;124;124;5;140;140;317.623;0;
33.8670240308188;-112.294304070894;16:20:00.03;8/16/2011;9;1.1;311.99;11.0837907782978;0;307.5;318.583790778298;3.9;1.7;36.8;.00;5.60;5.60;78;25;360.5;14.1;-1.8;D;818;2;26.254;1;1;165;317.8212;-112.294495;33.867199;0;0;1;N;124;124;5;140;140;317.8212;0;
33.8670294330673;-112.294311294933;16:20:01.03;8/16/2011;9;1.08;315.57;11.0837907782978;0;307.3;318.383790778298;3.6;2.5;36.8;.00;5.60;5.60;78;25;360.5;14.1;-1.8;D;816.7;2;25.361;1;1;165;318.0266;-112.294495;33.867199;0;0;1;N;122;122;5;143;143;318.0286;0;
33.8670307012287;-112.294314067062;16:20:02.03;8/16/2011;9;1.09;314.17;11.0837907782978;0;307.8;318.883790778298;3.2;2.7;36.7;.00;5.48;5.48;78;25;360.5;14.1;-1.8;D;816.7;2;25.086;1;1;165;318.2459;-112.294495;33.867199;0;0;1;N;121;121;5;141;141;318.0128;0;
33.867034074744;-112.294317420837;16:20:03.04;8/16/2011;9;1.05;317.06;11.0837907782978;0;308.6;319.683790778298;3.3;2.1;36.8;.00;5.35;5.35;78;25;360.4;14.1;-1.8;D;816.6;2;24.599;1;1;165;318.2021;-112.294495;33.867199;0;0;1;N;121;121;5;139;139;318.2318;0;
33.8670373817363;-112.294322381271;16:20:04.04;8/16/2011;9;1.06;317.21;11.0837907782978;0;309.1;320.183790778298;3;1.8;36.8;.00;5.32;5.32;78;25;360.4;14.1;-1.8;D;816.6;2;24.020;1;1;165;318.4319;-112.294495;33.867199;0;0;1;N;121;121;5;137;137;318.1721;0;
33.8670428660904;-112.29432782132;16:20:05.04;8/16/2011;9;1.03;317.75;11.0837907782978;0;309.7;320.783790778298;2.8;0.4;36.8;.00;5.32;5.32;78;25;360.4;14.1;-1.8;D;817.9;2;23.231;1;1;165;318.3607;-112.294495;33.867199;0;0;1;N;119;119;5;134;134;318.372;0;
33.8670462025965;-112.294331147622;16:20:06.04;8/16/2011;9;1.05;318.03;11.0837907782978;0;309.9;320.983790778298;3.4;1.8;36.8;.00;5.29;5.30;78;25;360.4;14.1;-1.8;D;817.9;2;22.750;1;1;165;318.3179;-112.294495;33.867199;0;0;1;N;122;122;5;132;132;318.3305;0;
33.8670490456743;-112.294334042688;16:20:07.04;8/16/2011;9;1.05;320.6;11.0837907782978;0;309.2;320.283790778298;3.3;1;36.8;.00;5.23;5.23;78;25;360.4;14.1;-1.8;D;817.9;2;22.336;1;1;165;318.2907;-112.294495;33.867199;0;0;1;N;122;122;5;140;140;318.2547;0;
33.86705237367;-112.294337383298;16:20:08.04;8/16/2011;9;1.04;320;11.0837907782978;0;308.7;319.783790778298;3.5;-0.1;36.8;.00;5.23;5.23;78;25;360.4;14.1;-1.8;D;817.8;2;21.854;1;1;165;318.2489;-112.294495;33.867199;0;0;1;N;122;122;5;139;139;318.2336;0;
33.8670557206747;-112.29434237167;16:20:09.04;8/16/2011;9;1.05;315.37;11.0837907782978;0;309.7;320.783790778298;3.8;-1.8;36.8;.00;5.24;5.24;78;25;360.4;14.1;-1.8;D;817.8;2;21.270;1;1;165;318.5069;-112.294495;33.867199;0;0;1;N;123;123;5;132;132;318.2054;0;
33.8670590621646;-112.294345683006;16:20:10.04;8/16/2011;9;1.04;314.39;11.0837907782978;0;310.9;321.983790778298;4.2;-2.5;36.8;.00;5.15;5.15;78;25;360.4;14.1;-1.8;D;817.8;2;20.789;1;1;165;318.4596;-112.294495;33.867199;0;0;1;N;125;125;5;128;128;318.4547;0;
33.8670616666667;-112.29435;16:20:11.05;8/16/2011;9;1.03;315.6;11.0837907782978;0;312.5;323.583790778298;4;1.6;36.8;.00;5.06;5.06;78;25;360.4;14.1;-1.8;D;817.8;2;20.368;1;1;165;318.4152;-112.294495;33.867199;0;0;1;N;124;124;5;117;117;318.4152;0;
33.867065;-112.294353333333;16:20:12.06;8/16/2011;9;1.06;315.93;11.0837907782978;0;309.6;320.683790778298;3.3;3.1;36.8;.00;5.05;5.06;78;25;360.4;14.1;-1.8;D;817.8;2;19.794;1;1;165;318.7325;-112.294495;33.867199;0;0;1;N;121;121;5;139;139;318.7325;0;
33.8670683333333;-112.294358333333;16:20:13.06;8/16/2011;9;1.04;316.46;11.0837907782978;0;308.8;319.883790778298;3.6;1.8;36.7;.00;5.02;5.02;78;25;360.4;14.1;-1.8;D;817.8;2;19.313;1;1;165;318.6829;-112.294495;33.867199;0;0;1;N;122;122;5;144;144;318.6829;0;
33.867073787096;-112.294363826096;16:20:14.06;8/16/2011;9;1.05;310.71;11.0837907782978;0;309.5;320.583790778298;3.8;0.4;36.7;.00;4.96;4.96;78;25;360.4;14.1;-1.8;D;817.8;2;18.454;1;1;165;318.9813;-112.294495;33.867199;0;0;1;N;123;123;5;144;144;318.9813;0;
33.8670757063088;-112.294367385132;16:20:15.06;8/16/2011;9;1.05;316.63;11.0837907782978;0;310.8;321.883790778298;3.6;1.1;36.8;.00;4.90;4.90;78;25;360.4;14.1;-1.8;D;817.8;2;18.077;1;1;165;319.3232;-112.294495;33.867199;0;0;1;N;121;121;5;144;144;319.3232;0;
33.8670790514476;-112.29437071004;16:20:16.06;8/16/2011;9;1.06;319.01;11.0837907782978;0;310;321.083790778298;3.3;2.4;36.8;.00;4.84;4.84;78;26;360.3;14.1;-1.8;D;815;2;17.595;1;1;165;319.2918;-112.294495;33.867199;0;0;1;N;120;120;5;146;146;319.2918;0;
33.8670823810688;-112.29437570637;16:20:17.07;8/16/2011;9;1.04;316.16;11.0837907782978;0;310.5;321.583790778298;3.5;1.8;36.8;.00;4.81;4.81;78;26;360.3;14.1;-1.8;D;815;2;17.014;1;1;165;319.6563;-112.294495;33.867199;0;0;1;N;121;121;5;143;143;319.6563;0;
33.8670871646042;-112.294380420863;16:20:18.07;8/16/2011;9;1.03;317.84;11.0837907782978;0;311.2;322.283790778298;3.4;3.6;36.7;.00;4.84;4.84;78;25;360.3;14.1;-1.8;D;816.4;2;16.326;1;1;165;319.6121;-112.294495;33.867199;0;0;1;N;122;122;5;138;138;319.6121;0;
33.867090511057;-112.294385408629;16:20:19.07;8/16/2011;9;1.03;317.31;11.0837907782978;0;309.8;320.883790778298;3.2;1.9;36.7;.00;4.78;4.78;78;25;360.3;14.1;-1.8;D;816.4;2;15.746;1;1;165;320.0111;-112.294495;33.867199;0;0;1;N;121;121;5;147;147;320.0111;0;
33.8670939021484;-112.294388733937;16:20:20.07;8/16/2011;9;1.05;316.64;11.0837907782978;0;311.3;322.383790778298;3.7;2.1;36.7;.00;4.78;4.78;78;25;360.3;14.1;-1.8;D;816.3;2;15.259;1;1;165;319.9845;-112.294495;33.867199;0;0;1;N;123;123;5;142;142;319.9845;0;
33.8670957391914;-112.294392334798;16:20:21.07;8/16/2011;9;1.05;314.39;11.0837907782978;0;311.9;322.983790778298;3.8;2;36.7;.00;4.75;4.75;78;26;360.3;14.1;-1.8;D;812.8;2;14.889;1;1;165;320.4589;-112.294495;33.867199;0;0;1;N;122;122;5;141;141;320.4589;0;
33.8670990726826;-112.294395668274;16:20:22.07;8/16/2011;9;1.06;313.14;11.0837907782978;0;311.9;322.983790778298;3.6;1.6;36.8;.00;4.72;4.72;78;26;360.3;14.1;-1.8;D;812.8;2;14.407;1;1;165;320.4643;-112.294495;33.867199;0;0;1;N;122;122;5;143;143;320.4643;0;
33.8671039919914;-112.294402024821;16:20:23.07;8/16/2011;9;1.12;316.84;11.0837907782978;0;312.6;323.683790778298;3.4;2;36.8;.00;4.72;4.72;78;26;360.3;14.1;-1.8;D;812.8;2;13.612;1;1;165;320.9039;-112.294495;33.867199;0;0;1;N;122;122;5;142;142;320.9039;0;
33.8671057437717;-112.29440399348;16:20:24.09;8/16/2011;9;1.12;317.77;11.0837907782978;0;312;323.083790778298;3.5;-0.3;36.7;.00;4.66;4.66;78;26;360.3;14.1;-1.8;D;812.8;2;13.347;1;1;165;320.9821;-112.294495;33.867199;0;0;1;N;122;122;5;143;143;320.9821;0;
33.8671130395588;-112.294410888687;16:20:25.09;8/16/2011;9;1.13;315.39;11.0837907782978;0;313.9;324.983790778298;3.6;-0.6;36.7;.00;4.66;4.66;78;26;360.3;14.1;-1.8;D;812.7;2;12.316;1;1;165;320.9072;-112.294495;33.867199;0;0;1;N;122;122;5;134;134;320.9072;0;
33.867116365042;-112.29441589388;16:20:26.09;8/16/2011;9;1.12;317.38;11.0837907782978;0;314.3;325.383790778298;3.6;0.5;36.7;.00;4.60;4.60;78;26;360.3;14.1;-1.8;D;812.7;2;11.738;1;1;165;321.5198;-112.294495;33.867199;0;0;1;N;122;122;5;137;137;321.5198;0;
33.8671181902582;-112.294417936794;16:20:27.09;8/16/2011;9;1.07;323.22;11.0837907782978;0;314.5;325.583790778298;4;2;36.7;.00;4.57;4.57;78;26;360.3;14.1;-1.8;D;812.7;2;11.462;1;1;165;321.6266;-112.294495;33.867199;0;0;1;N;124;124;5;137;137;321.6266;0;
33.8671230378337;-112.294424215713;16:20:28.09;8/16/2011;9;1.12;323.78;11.0837907782978;0;314.6;325.683790778298;3.8;-2;36.7;.00;4.54;4.54;78;26;360.3;14.1;-1.8;D;812.7;2;10.680;1;1;165;322.2697;-112.294495;33.867199;0;0;1;N;123;123;5;141;141;322.2697;0;
33.867128056046;-112.294427519559;16:20:29.09;8/16/2011;9;1.04;320.71;11.0837907782978;0;315.4;326.483790778298;3.9;0.9;36.7;.00;4.54;4.54;78;26;360.3;14.1;-1.8;D;814;2;10.052;1;1;165;321.6985;-112.294495;33.867199;0;0;1;N;124;124;5;132;132;321.6985;0;
33.8671314341034;-112.294430871906;16:20:30.09;8/16/2011;9;1.05;322.9;11.0837907782978;0;315.4;326.483790778298;3.8;1.1;36.7;.00;4.51;4.51;78;26;360.3;14.1;-1.8;D;814;2;9.566;1;1;165;321.7589;-112.294495;33.867199;0;0;1;N;123;123;5;132;132;321.813;0;
